SERVICE_REQUEST_ID	STATUS	SERVICE_NAME	SERVICE_CODE	DESCRIPTION	AGENCY_RESPONSIBLE	REQUESTED_DATETIME	UPDATED_DATETIME	EXPECTED_DATETIME	ADDRESS	ZIPCODE	LATITUDE	LONGITUDE	REQUESTED_DATE	UPDATED_DATE	LAST_TABLE_UPDATE
SR22018135	CLOS	"""Metal Furniture, Spec Collectn"""	"""MTL-FRN"""	""" """	Public Services	2022-02-25	2022-03-09	2022-03-11	"""3661 WASHINGTON AV - GJ1647436535 """	45229	39.1511130537364	-84.4948909735022	02/25/2022 12:00:00 AM	03/09/2022 12:00:00 AM	03/20/2022 12:00:00 AM
SR22020070	CLOS	"""Metal Furniture, Spec Collectn"""	"""MTL-FRN"""	"""mattress"""	Public Services	2022-03-03	2022-03-18	2022-03-17	"""2810 ORLAND AV - GJ0968134734 """	45211	39.1365617681184	-84.5739922796738	03/03/2022 12:00:00 AM	03/18/2022 12:00:00 AM	03/20/2022 12:00:00 AM
SR22094861	NEW	"""Trash cart, registration"""	"""TRSHCRTR"""	"""1 set of registration stickers"""	Public Services	2022-10-20	2022-10-20	2022-11-11	"""3316 SAFFER ST - GJ0996835658 """	45211	39.1448132046672	-84.5703843450027	10/20/2022 12:00:00 AM	10/20/2022 12:00:00 AM	10/20/2022 12:00:00 AM
SR22068040	CLOS	"""Trash, request for new service"""	"""TRSHRQNS"""	"""NEED TRASH CART"""	Public Services	2022-07-25	2022-07-25	2022-08-01	"""1355 BURDETTE AV - GJ1781033976 """	45206	39.1277399070736	-84.4802686490917	07/25/2022 12:00:00 AM	07/25/2022 12:00:00 AM	07/25/2022 12:00:00 AM
SR21107871	CLOS	"""Trash, request for collection"""	"""RF-COLLT"""	"""Request entered through the Web. Refer to Intake Questions for further description."""	Public Services	2021-12-27	2021-12-27	2022-01-03	"""639 FOREST AV, CINC - GJ1665435906"""	45229	39.1454086741357	-84.4929903713201	12/27/2021 12:00:00 AM	12/27/2021 12:00:00 AM	12/27/2021 12:00:00 AM
SR22053167	NEW	"""Pothole, repair"""	"""PTHOLE"""	"""POTHOLE REPAIR- 2 POTHOLES IN THE MIDDLE OF THE STREET """	Public Services	2022-06-13	2022-06-13	2022-06-25	"""2295 GRANDIN RD - GJ2010034134 """	45208	39.1285854624438	-84.4537453474624	06/13/2022 12:00:00 AM	06/13/2022 12:00:00 AM	06/13/2022 12:00:00 AM
SR22043910	NEW	"""Trash cart, exemption"""	"""TRSHCRTE"""	"""Request entered through the Web. Refer to Intake Questions for further description."""	Public Services	2022-05-17	2022-05-17	2022-05-31	"""1601 ROSS AV, CINC - """	45205	39.116816408867	-84.5727013813993	05/17/2022 12:00:00 AM	05/17/2022 12:00:00 AM	05/17/2022 12:00:00 AM
SR22087678	CLOS	"""Sign, down/missing stop sign"""	"""SGNDNA"""	"""STOP SIGN DOWN"""	Public Services	2022-09-23	2022-09-23	2022-09-24	"""HILLSIDE AV & RAPID RUN RD - GJ0031031282 """	45233	39.1076879302095	-84.6833418761652	09/23/2022 12:00:00 AM	09/23/2022 12:00:00 AM	09/23/2022 12:00:00 AM
SR21055178	CLOS	"""Building, residential"""	"""BLD-RES"""	"""Request entered through the Web. Refer to Intake Questions for further description."""	Cinc Building Dept	2021-06-26	2021-07-01	2022-06-26	"""3436 PRICE AV, CINC - GJ1034431515"""	45205	39.107429580023	-84.5673029398019	06/26/2021 12:00:00 AM	07/01/2021 12:00:00 AM	07/01/2021 12:00:00 AM
SR22063191	NEW	"""Metal Furniture, Spec Collectn"""	"""MTL-FRN"""	"""SPECIAL COLLECTION """	Public Services	2022-07-11	2022-07-11	2022-07-25	"""2794 QUEEN CITY AV - GJ0786534446 """	45238	39.1344029798158	-84.5950762790569	07/11/2022 12:00:00 AM	07/11/2022 12:00:00 AM	07/11/2022 12:00:00 AM
SR22082066	NEW	"""Metal Furniture, Spec Collectn"""	"""MTL-FRN"""	""" """	Public Services	2022-09-06	2022-09-06	2022-09-20	"""1237 ROSSMORE AV - GJ1804639690 """	45237	39.1791271720804	-84.4756971393083	09/06/2022 12:00:00 AM	09/06/2022 12:00:00 AM	09/14/2022 12:00:00 AM
SR22076619	CLOS	"""Trash, improper set out"""	"""TRASH-I"""	"""Request entered through the Web. Refer to Intake Questions for further description."""	Public Services	2022-08-18	2022-08-19	2022-08-19	"""614 STRAIGHT ST, CINC - GJ1378934137"""	45219	39.1301976070069	-84.5266813085094	08/18/2022 12:00:00 AM	08/19/2022 12:00:00 AM	09/14/2022 12:00:00 AM
SR22052037	CLOS	"""Yard waste,rtc"""	"""YDWSTA-J"""	"""RTC"""	Public Services	2022-06-09	2022-06-09	2022-06-16	"""6833 HURD AV - GJ2644037377 """	45227	39.1561541079631	-84.3793902291301	06/09/2022 12:00:00 AM	06/09/2022 12:00:00 AM	06/09/2022 12:00:00 AM
SR22019360	CLOS	"""Building, residential"""	"""BLD-RES"""	"""NO HOT WATER"""	Cinc Building Dept	2022-03-01	2022-03-11	2023-03-01	"""2352 WILLIAMSBURG DR - GJ1077136834 """	45225	39.155207068281	-84.5607361567357	03/01/2022 12:00:00 AM	03/11/2022 12:00:00 AM	03/20/2022 12:00:00 AM
SR22005019	NEW	"""Default, police (and junk veh)"""	"""DFLTPLC"""	"""Request entered through the Web. Refer to Intake Questions for further description."""	Police Department	2022-01-20	2022-01-20	2022-01-21	"""1901 MONTROSE ST, CINC - GJ1071033734"""	45214	39.1273182315668	-84.5624047007471	01/20/2022 12:00:00 AM	01/20/2022 12:00:00 AM	01/20/2022 12:00:00 AM
SR22048258	NEW	"""Metal Furniture, Spec Collectn"""	"""MTL-FRN"""	"""Request entered through the Web. Refer to Intake Questions for further description."""	Public Services	2022-05-29	2022-05-29	2022-06-12	"""576 TERRACE AV, CINC - GJ1367735510"""	45220	39.1425823000753	-84.5275426442377	05/29/2022 12:00:00 AM	05/29/2022 12:00:00 AM	05/29/2022 12:00:00 AM
SR22057735	NEW	"""Metal Furniture, Spec Collectn"""	"""MTL-FRN"""	"""Request entered through the Web. Refer to Intake Questions for further description."""	Public Services	2022-06-25	2022-06-25	2022-07-09	"""6607 DALY RD, CINC - GJ1309342983"""	45224	39.2099993495966	-84.5319386761213	06/25/2022 12:00:00 AM	06/25/2022 12:00:00 AM	06/25/2022 12:00:00 AM
SR22044016	NEW	"""Tall grass/weeds, PS property"""	"""TLGR-PS"""	"""CITY OWNED PROPERTY BETWEEN MANSS AVE AND BEECH AVE  THERE IS A STRIP OF CITY OWNED PROPERTY THAT HAS OVERGROWN GRASS AND WEEDS"""	Public Services	2022-05-17	2022-05-17	2022-07-16	"""1254 MANSS AV - GJ0941232434 """	45205	39.115917467058	-84.57781145653	05/17/2022 12:00:00 AM	05/17/2022 12:00:00 AM	05/17/2022 12:00:00 AM
SR22036437	CLOS	"""Yard waste,rtc"""	"""YDWSTA-J"""	"""rtc"""	Public Services	2022-04-26	2022-04-29	2022-05-03	"""1021 FAIRBANKS AV - GJ1024931912 """	45205	39.1110205901223	-84.5682968330947	04/26/2022 12:00:00 AM	04/29/2022 12:00:00 AM	05/07/2022 12:00:00 AM
SR22103181	NEW	"""Vehicle, abandoned in street"""	"""PLCJUNKV"""	"""Request entered through the Web. Refer to Intake Questions for further description."""	Police Department	2022-11-23	2022-11-23	2022-11-24	"""1667 HAMER ST, CINC - GJ1475132511"""	45202	39.1153214980805	-84.5160819702015	11/23/2022 12:00:00 AM	11/23/2022 12:00:00 AM	11/23/2022 12:00:00 AM
SR22022610	CLOS	"""Recycling, collect green cart"""	"""RCYCLNG"""	"""RECYCLING LEFT AT THE CURB- NOT COLLECTED """	City Manager's Office	2022-03-10	2022-03-11	2022-03-11	"""6026 CONNECTICUT CT - GJ1076641922 """	45224	39.2010105128181	-84.5592066719104	03/10/2022 12:00:00 AM	03/11/2022 12:00:00 AM	03/20/2022 12:00:00 AM
SR22064482	OPEN	"""Vehicle, abandon priv p no acc"""	"""ABAN-VNA"""	"""JV"""	Cinc Health Dept	2022-07-14	2022-07-14	2022-09-02	"""6239 CORTELYOU AV - GJ2189940559 """	45213	39.1859707984679	-84.4308508745197	07/14/2022 12:00:00 AM	07/14/2022 12:00:00 AM	07/14/2022 12:00:00 AM
SR22088245	NEW	"""Metal Furniture, Spec Collectn"""	"""MTL-FRN"""	"""Request entered through the Web. Refer to Intake Questions for further description."""	Public Services	2022-09-26	2022-09-26	2022-10-10	"""207 STURGIS AV, CINC - GJ1640537228"""	45217	39.1573676790556	-84.4954565030151	09/26/2022 12:00:00 AM	09/26/2022 12:00:00 AM	09/26/2022 12:00:00 AM
SR22018079	CLOS	"""Pothole, repair"""	"""PTHOLE"""	"""SEVERAL POTHOLES ON WOOSTER RD"""	Public Services	2022-02-25	2022-03-01	2022-03-09	"""WOOSTER RD & BEECHMONT AV - GJ2357033102 """	45226	39.1184203511241	-84.4139779954815	02/25/2022 12:00:00 AM	03/01/2022 12:00:00 AM	03/20/2022 12:00:00 AM
SR22015705	CLOS	"""Tires, Special Collection"""	"""TIRES"""	"""Request entered through the Web. Refer to Intake Questions for further description."""	Public Services	2022-02-21	2022-03-03	2022-03-07	"""5820 BLUESPRUCE LN, CINC - GJ1078241415"""	45224	39.1964466987751	-84.5591717208279	02/21/2022 12:00:00 AM	03/03/2022 12:00:00 AM	03/20/2022 12:00:00 AM
SR22062421	NEW	"""Metal Furniture, Spec Collectn"""	"""MTL-FRN"""	"""Request entered through the Web. Refer to Intake Questions for further description."""	Public Services	2022-07-08	2022-07-08	2022-07-22	"""3225 VINE ST, CINC - GJ1522535134"""	45220	39.1388191261969	-84.5097591102455	07/08/2022 12:00:00 AM	07/08/2022 12:00:00 AM	07/08/2022 12:00:00 AM
SR21039469	CLOS	"""Building, residential"""	"""BLD-RES"""	"""DOORWAY BROKEN/HALLWAY LEAKING/TALL GRASS/TRASH"""	Cinc Building Dept	2021-05-12	2021-05-27	2022-05-12	"""660 STRAIGHT ST - GJ1362734145 """	45214	39.1303048034509	-84.52856029387	05/12/2021 12:00:00 AM	05/27/2021 12:00:00 AM	05/27/2021 12:00:00 AM
SR22076846	CLOS	"""Light, repair"""	"""STRTLITE"""	"""Request entered through the Web. Refer to Intake Questions for further description."""	Dept of Trans and Eng	2022-08-19	2022-08-19	2022-08-20	"""3666 GRANDIN RD, CINC - GJ2222033327"""	45226	39.1207911390811	-84.4295020640737	08/19/2022 12:00:00 AM	08/19/2022 12:00:00 AM	09/14/2022 12:00:00 AM
SR21077886	CLOS	"""Rats in sewer, rem req"""	"""RTSNSWR"""	"""RATS COMING OUT OF SEWER ON GREEN ST & REPUBLIC"""	Cinc Health Dept	2021-09-01	2021-09-13	2022-03-02	"""GREEN ST & REPUBLIC ST - GJ1468232405 """	45202	39.114375991775	-84.5169150437313	09/01/2021 12:00:00 AM	09/13/2021 12:00:00 AM	09/13/2021 12:00:00 AM
SR22025358	NEW	"""Building, residential"""	"""BLD-RES"""	"""AC UNIT LEAKS WHEN IT RIAINS"""	Cinc Building Dept	2022-03-21	2022-03-21	2023-03-21	"""6351 BEECHMONT AV - GJ2637129614 """	45230	39.0862976925546	-84.3827712988093	03/21/2022 12:00:00 AM	03/21/2022 12:00:00 AM	03/21/2022 12:00:00 AM
SR22023424	OPEN	"""Tall grass/weeds, PS property"""	"""TLGR-PS"""	"""Request entered through the Web. Refer to Intake Questions for further description."""	Public Services	2022-03-14	2022-03-16	2022-05-13	"""3083 VEAZEY AV, CINC - GJ0706434115"""	45238	39.1316189848895	-84.6044295739387	03/14/2022 12:00:00 AM	03/16/2022 12:00:00 AM	03/20/2022 12:00:00 AM
SR22042630	NEW	"""ROW furniture/trash dumping"""	"""RWFRNTRT"""	"""100 FT SOUTH OF THAT ENTRANCE GATE- THERE ARE MULTIPLE BOXES THAT HAVE BEEN DUMPED """	Public Services	2022-05-13	2022-05-13	2022-05-20	"""5200 LESTER RD - GJ2197738530 """	45213	39.1676847102822	-84.4306060319372	05/13/2022 12:00:00 AM	05/13/2022 12:00:00 AM	05/13/2022 12:00:00 AM
SR22091243	NEW	"""Building, residential"""	"""BLD-RES"""	"""KITCHEN SINK LEAKS/BATHROOM SINK AND TUB LEAK/BASEMENT LEAKS"""	Cinc Building Dept	2022-10-06	2022-10-06	2023-10-06	"""1334 CHAPEL ST - GJ1781034325 """	45206	39.1308837349135	-84.4801491447171	10/06/2022 12:00:00 AM	10/06/2022 12:00:00 AM	10/06/2022 12:00:00 AM
SR22017257	CLOS	"""Metal Furniture, Spec Collectn"""	"""MTL-FRN"""	"""Request entered through the Web. Refer to Intake Questions for further description."""	Public Services	2022-02-23	2022-03-04	2022-03-09	"""654 PEDRETTI AV, CINC - GJ0766631274"""	45238	39.1058968468734	-84.598333813694	02/23/2022 12:00:00 AM	03/04/2022 12:00:00 AM	03/20/2022 12:00:00 AM
SR22103849	NEW	"""Metal Furniture, Spec Collectn"""	"""MTL-FRN"""	"""Request entered through the Web. Refer to Intake Questions for further description."""	Public Services	2022-11-28	2022-11-28	2022-12-12	"""5662 BUTTERCUP LN, CINC - GJ0940341450"""	45239	39.1970963961339	-84.5751158996828	11/28/2022 12:00:00 AM	11/28/2022 12:00:00 AM	11/28/2022 12:00:00 AM
SR22052305	NEW	"""Default, City"""	"""DFLTCITY"""	"""Request entered through the Web. Refer to Intake Questions for further description."""	Public Services	2022-06-09	2022-06-09	2022-06-19	"""3288 BOWLING GREEN CT, CINC - GJ1138935625"""	45225	39.1441770881138	-84.5539587238327	06/09/2022 12:00:00 AM	06/09/2022 12:00:00 AM	06/09/2022 12:00:00 AM
SR22027352	NEW	"""Building, vacant and open res"""	"""BLD_VACR"""	"""Request entered through the Web. Refer to Intake Questions for further description."""	Cinc Building Dept	2022-03-28	2022-03-28	2022-06-08	"""545 KLOTTER AV, CINC - GJ1348133285"""	45214	39.1226001090123	-84.5305099015044	03/28/2022 12:00:00 AM	03/28/2022 12:00:00 AM	03/28/2022 12:00:00 AM
SR22050749	NEW	"""Metal Furniture, Spec Collectn"""	"""MTL-FRN"""	"""Request entered through the Web. Refer to Intake Questions for further description."""	Public Services	2022-06-06	2022-06-06	2022-06-20	"""2536 ELMDALE DR, CINC - GJ2554031467"""	45230	39.1032002520605	-84.3917497946672	06/06/2022 12:00:00 AM	06/06/2022 12:00:00 AM	06/06/2022 12:00:00 AM
SR22057568	NEW	"""Trash cart, registration"""	"""TRSHCRTR"""	"""2 SETS OF REGISTRATION STICKERS"""	Public Services	2022-06-24	2022-06-24	2022-07-16	"""541 W MCMICKEN AV - GJ1349733197 """	45214	39.1217926287386	-84.5303561365345	06/24/2022 12:00:00 AM	06/24/2022 12:00:00 AM	06/24/2022 12:00:00 AM
SR22056807	CLOS	"""Trash, request for collection"""	"""RF-COLLT"""	"""Request entered through the Web. Refer to Intake Questions for further description."""	Public Services	2022-06-23	2022-06-23	2022-06-30	"""5092 OVERBROOK PL, CINC - GJ2365938246"""	45227	39.1647043115644	-84.4112485153283	06/23/2022 12:00:00 AM	06/23/2022 12:00:00 AM	06/23/2022 12:00:00 AM
SR22033168	CLOS	"""Recycling, collect green cart"""	"""RCYCLNG"""	"""MISSED RECYCLING - RTC """	City Manager's Office	2022-04-15	2022-04-16	2022-04-16	"""2168 MILLVALE CT - GJ1135936369 """	45225	39.1508732486646	-84.554083832227	04/15/2022 12:00:00 AM	04/16/2022 12:00:00 AM	05/07/2022 12:00:00 AM
SR22069380	NEW	"""Tall grass/weeds, private prop"""	"""TLGR-PRV"""	"""Request entered through the Web. Refer to Intake Questions for further description."""	Public Services	2022-07-27	2022-07-27	2022-09-10	"""2931 ROBERTSON AV, CINC - GJ2173637170"""	45209	39.1555114888715	-84.4338413234578	07/27/2022 12:00:00 AM	07/27/2022 12:00:00 AM	07/27/2022 12:00:00 AM
SR22026587	NEW	"""Metal Furniture, Spec Collectn"""	"""MTL-FRN"""	"""SPECIAL COLLECTION """	Public Services	2022-03-24	2022-03-24	2022-04-07	"""841 VAN DYKE AV - GJ2235033855 """	45226	39.1255096181846	-84.427829846394	03/24/2022 12:00:00 AM	03/24/2022 12:00:00 AM	03/24/2022 12:00:00 AM
SR22077226	NEW	"""Metal Furniture, Spec Collectn"""	"""MTL-FRN"""	""" """	Public Services	2022-08-22	2022-08-22	2022-09-05	"""1346 CHAPEL ST - GJ1785534331 """	45206	39.130925644203	-84.4796249345587	08/22/2022 12:00:00 AM	08/22/2022 12:00:00 AM	09/14/2022 12:00:00 AM
SR22103123	PEND	"""Recycling, remove cart"""	"""REMOVE"""	"""please remove one recycling toter"""	City Manager's Office	2022-11-23	2022-11-23	2022-12-10	"""3854 STANDISH AV - GJ2408840511 """	45213	39.1849804159451	-84.4055435516277	11/23/2022 12:00:00 AM	11/23/2022 12:00:00 AM	11/23/2022 12:00:00 AM
SR22048244	NEW	"""Pothole, repair"""	"""PTHOLE"""	"""Request entered through the Web. Refer to Intake Questions for further description."""	Public Services	2022-05-29	2022-05-29	2022-06-10	"""1957 LEHIGH AV, CINC - GJ2585830014"""	45230	39.090037329389	-84.3885555518137	05/29/2022 12:00:00 AM	05/29/2022 12:00:00 AM	05/29/2022 12:00:00 AM
SR22082456	NEW	"""Metal Furniture, Spec Collectn"""	"""MTL-FRN"""	""" """	Public Services	2022-09-07	2022-09-07	2022-09-21	"""2410 GRANDVIEW AV - GJ1788033617 """	45206	39.1244946944203	-84.4795708308567	09/07/2022 12:00:00 AM	09/07/2022 12:00:00 AM	09/14/2022 12:00:00 AM
SR22107646	NEW	"""Manhole cvr/sewer lid, missing"""	"""MNHLCVRM"""	"""Request entered through the Web. Refer to Intake Questions for further description."""	Public Services	2022-12-12	2022-12-12	2022-12-13	"""1554 GLEN PARKER AV, CINC - GJ1260638618"""	45223	39.1708290660898	-84.5389420611311	12/12/2022 12:00:00 AM	12/12/2022 12:00:00 AM	12/31/2022 12:00:00 AM
SR22049366	NEW	"""Dumping, prv prop <2500 sq ft"""	"""DUMP-PVS"""	"""Request entered through the Web. Refer to Intake Questions for further description."""	Public Services	2022-06-01	2022-06-01	2022-07-16	"""6510 HEDGE AV, CINC - GJ2417940717"""	45213	39.1868116540929	-84.4044039931	06/01/2022 12:00:00 AM	06/01/2022 12:00:00 AM	06/01/2022 12:00:00 AM
SR22108438	CLOS	"""Trash, citation issued"""	"""TRSHCITE"""	"""Request entered through the Web. Refer to Intake Questions for further description."""	Public Services	2022-12-15	2022-12-19	2022-12-22	"""4226 CENTURY LN, CINC - GJ0832131745"""	45205	39.1099827359444	-84.5906263237976	12/15/2022 12:00:00 AM	12/19/2022 12:00:00 AM	12/31/2022 12:00:00 AM
SR22058584	NEW	"""Metal Furniture, Spec Collectn"""	"""MTL-FRN"""	""" """	Public Services	2022-06-28	2022-06-28	2022-07-12	"""2390 BOUDINOT AV - GJ0702333963 """	45238	39.1302527607411	-84.6049528754671	06/28/2022 12:00:00 AM	06/28/2022 12:00:00 AM	06/28/2022 12:00:00 AM
SR22016640	CLOS	"""Pothole, repair"""	"""PTHOLE"""	"""Request entered through the Web. Refer to Intake Questions for further description."""	Public Services	2022-02-23	2022-02-24	2022-03-07	"""3522 WERK RD, CINC - GJ0569035191"""	45211	39.1416289411566	-84.6199930325542	02/23/2022 12:00:00 AM	02/24/2022 12:00:00 AM	03/20/2022 12:00:00 AM
SR22059653	NEW	"""Metal Furniture, Spec Collectn"""	"""MTL-FRN"""	"""Request entered through the Web. Refer to Intake Questions for further description."""	Public Services	2022-06-30	2022-06-30	2022-07-14	"""1926 CLARION AV, CINC - GJ1910035877"""		39.1445343334134	-84.464730095108	06/30/2022 12:00:00 AM	06/30/2022 12:00:00 AM	06/30/2022 12:00:00 AM
SR22037088	CLOS	"""Sign, down/missing """	"""STRSGN"""	"""PER 579@ 1:35PM- RESET BUS STOP SIGN """	Public Services	2022-04-27	2022-04-27	2022-04-28	"""4442 W 8TH ST - GJ0776031638 """	45238	39.1091454085762	-84.597144055892	04/27/2022 12:00:00 AM	04/27/2022 12:00:00 AM	05/07/2022 12:00:00 AM
SR22015836	CLOS	"""Metal Furniture, Spec Collectn"""	"""MTL-FRN"""	"""Request entered through the Web. Refer to Intake Questions for further description."""	Public Services	2022-02-21	2022-03-03	2022-03-07	"""2927 WARDALL AV, CINC - GJ0773136889"""	45211	39.1564394635918	-84.5958671431244	02/21/2022 12:00:00 AM	03/03/2022 12:00:00 AM	03/20/2022 12:00:00 AM
SR22048364	NEW	"""Metal Furniture, Spec Collectn"""	"""MTL-FRN"""	"""Request entered through the Web. Refer to Intake Questions for further description."""	Public Services	2022-05-30	2022-05-30	2022-06-13	"""826 FINDLAY ST, CINC - GJ1370732588"""	45214	39.1162731577536	-84.5281203273603	05/30/2022 12:00:00 AM	05/30/2022 12:00:00 AM	05/30/2022 12:00:00 AM
SR22073727	CLOS	"""Dead animal"""	"""DAPUB1"""	"""DEAD DEER """	Public Services	2022-08-10	2022-08-10	2022-08-11	"""2266 BALTIMORE AV - GJ1067036018 """	45225	39.1478791419055	-84.5621614173355	08/10/2022 12:00:00 AM	08/10/2022 12:00:00 AM	08/10/2022 12:00:00 AM
SR22086707	CLOS	"""Signal, traf/ped/school repair"""	"""TSIG-MAL"""	"""Request entered through the Web. Refer to Intake Questions for further description."""	Dept of Trans and Eng	2022-09-20	2022-09-20	2022-09-21	"""545 RACE ST, CINC - """	45202	39.1015304867063	-84.5149113026999	09/20/2022 12:00:00 AM	09/20/2022 12:00:00 AM	09/20/2022 12:00:00 AM
SR22027445	OPEN	"""Sign, down/missing stop sign"""	"""SGNDNA"""	"""PER 597-3/26/22- TEMP STOP SIGNED PLACED"""	Public Services	2022-03-28	2022-03-28	2022-03-29	"""NEWBEDFORD AV & SPARKLE DR - GJ1952142716 """	45237	39.2059950352401	-84.4576598435712	03/28/2022 12:00:00 AM	03/28/2022 12:00:00 AM	03/28/2022 12:00:00 AM
SR22070598	CLOS	"""Pothole, repair"""	"""PTHOLE"""	"""POTHOLE REPAIR FROM 3200 WERK RD - 3270 WERK RD"""	Public Services	2022-08-01	2022-08-01	2022-08-13	"""3201 WERK RD - GJ0668435092 """	45211	39.1405004472252	-84.6085324680011	08/01/2022 12:00:00 AM	08/01/2022 12:00:00 AM	08/01/2022 12:00:00 AM
SR21029852	OPEN	"""Building, residential"""	"""BLD-RES"""	"""no electric to some parts of the building"""	Cinc Building Dept	2021-04-12	2021-06-17	2022-04-12	"""2660 LEHMAN RD - GJ1173732608 """	45214	39.1169243311611	-84.5508888958076	04/12/2021 12:00:00 AM	06/17/2021 12:00:00 AM	06/17/2021 12:00:00 AM
SR22004572	NEW	"""Metal Furniture, Spec Collectn"""	"""MTL-FRN"""	"""SPECIAL COLLECTION """	Public Services	2022-01-19	2022-01-19	2022-02-02	"""5500 KIRBY AV - GJ1001541068 """	45239	39.1935046556376	-84.5681664364667	01/19/2022 12:00:00 AM	01/19/2022 12:00:00 AM	01/19/2022 12:00:00 AM
SR22065880	NEW	"""Metal Furniture, Spec Collectn"""	"""MTL-FRN"""	""" """	Public Services	2022-07-18	2022-07-18	2022-08-01	"""3449 WILSON AV - GJ1577335705 """	45229	39.143814627877	-84.5032574633921	07/18/2022 12:00:00 AM	07/18/2022 12:00:00 AM	07/18/2022 12:00:00 AM
SR22056615	NEW	"""Tall grass/weeds, private prop"""	"""TLGR-PRV"""	"""Request entered through the Web. Refer to Intake Questions for further description."""	Public Services	2022-06-22	2022-06-22	2022-08-06	"""811 PURCELL AV, CINC - GJ1056231407"""	45205	39.1064053291144	-84.5648300428483	06/22/2022 12:00:00 AM	06/22/2022 12:00:00 AM	06/22/2022 12:00:00 AM
SR22000967	NEW	"""Building, residential"""	"""BLD-RES"""	"""Reissuing case B202003287"""	Cinc Building Dept	2022-01-05	2022-01-05	2023-01-05	"""1128 MANSION AV - GJ1044932145 """	45205	39.1130678255981	-84.5659210594562	01/05/2022 12:00:00 AM	01/05/2022 12:00:00 AM	01/05/2022 12:00:00 AM
SR22062506	NEW	"""Yard waste,rtc"""	"""YDWSTA-J"""	"""rtc whole street"""	Public Services	2022-07-08	2022-07-08	2022-07-15	"""4149 GORDON ST - GJ1193737835 """	45223	39.1639320919131	-84.5469441596299	07/08/2022 12:00:00 AM	07/08/2022 12:00:00 AM	07/08/2022 12:00:00 AM
SR22051021	NEW	"""Metal Furniture, Spec Collectn"""	"""MTL-FRN"""	"""Request entered through the Web. Refer to Intake Questions for further description."""	Public Services	2022-06-07	2022-06-07	2022-06-21	"""3721 SONOMA CT, CINC - GJ2324738639"""	45227	39.1683518097599	-84.4158810991564	06/07/2022 12:00:00 AM	06/07/2022 12:00:00 AM	06/07/2022 12:00:00 AM
SR22024113	CLOS	"""Special collections, rtc"""	"""BLKYTMST"""	"""RTC- SR20975 """	Public Services	2022-03-16	2022-03-16	2022-03-23	"""6229 LISBON AV - GJ2146440513 """	45213	39.1856697070995	-84.4358993952923	03/16/2022 12:00:00 AM	03/16/2022 12:00:00 AM	03/20/2022 12:00:00 AM
SR22057922	CLOS	"""Trash, no trash at location"""	"""TRSHNTRL"""	"""PER 691-  NOT OUT """	Public Services	2022-06-27	2022-06-27	2022-07-04	"""1101 DAYTON ST - GJ1327732810 """	45214	39.1183678324635	-84.5330248024449	06/27/2022 12:00:00 AM	06/27/2022 12:00:00 AM	06/27/2022 12:00:00 AM
SR22103523	NEW	"""Metal Furniture, Spec Collectn"""	"""MTL-FRN"""	"""Request entered through the Web. Refer to Intake Questions for further description."""	Public Services	2022-11-25	2022-11-25	2022-12-09	"""7228 READING RD, CINC - GJ1933241336"""	45237	39.1936228044856	-84.4602761185024	11/25/2022 12:00:00 AM	11/25/2022 12:00:00 AM	11/25/2022 12:00:00 AM
SR22028629	NEW	"""Metal Furniture, Spec Collectn"""	"""MTL-FRN"""	"""Request entered through the Web. Refer to Intake Questions for further description."""	Public Services	2022-03-31	2022-03-31	2022-04-14	"""2954 BODLEY AV, CINC - GJ1094130989"""	45205	39.1025481930408	-84.5605787566952	03/31/2022 12:00:00 AM	03/31/2022 12:00:00 AM	03/31/2022 12:00:00 AM
SR22001920	NEW	"""Metal Furniture, Spec Collectn"""	"""MTL-FRN"""	"""Request entered through the Web. Refer to Intake Questions for further description."""	Public Services	2022-01-10	2022-01-10	2022-01-24	"""2530 RIDGELAND PL, CINC - GJ2099339225"""	45212	39.1741939740002	-84.4417576938384	01/10/2022 12:00:00 AM	01/10/2022 12:00:00 AM	01/10/2022 12:00:00 AM
SR21061415	CLOS	"""Parking, grass front yd res"""	"""PRKNGYRD"""	"""Request entered through the Web. Refer to Intake Questions for further description."""	Cinc Building Dept	2021-07-13	2021-08-17	2022-01-09	"""705 ELBERON AV, CINC - GJ1039531161"""	45205	39.1042218508689	-84.5668385595195	07/13/2021 12:00:00 AM	08/17/2021 12:00:00 AM	08/17/2021 12:00:00 AM
SR22063734	NEW	"""Trash cart, registration"""	"""TRSHCRTR"""	"""REQUESTING SET OF STICKERS (1)"""	Public Services	2022-07-12	2022-07-12	2022-08-03	"""3126 GLENMORE AV - GJ0627535230 """	45211	39.1418405285453	-84.6132174185815	07/12/2022 12:00:00 AM	07/12/2022 12:00:00 AM	07/12/2022 12:00:00 AM
SR21074170	CLOS	"""Building, residential"""	"""BLD-RES"""	"""debris and refuse all over street. demolishine truck blocking traffic/debris in air"""	Cinc Building Dept	2021-08-19	2021-09-02	2022-08-19	"""3371 READING RD - GJ1662435391 """	45229	39.1407775942153	-84.493515045215	08/19/2021 12:00:00 AM	09/02/2021 12:00:00 AM	09/02/2021 12:00:00 AM
SR21107955	NEW	"""Parking, grass front yd res"""	"""PRKNGYRD"""	"""Request entered through the Web. Refer to Intake Questions for further description."""	Cinc Building Dept	2021-12-27	2021-12-27	2022-06-25	"""3201 HARDISTY AV, CINC - GJ2233334447"""	45208	39.1308402436783	-84.427824369382	12/27/2021 12:00:00 AM	12/27/2021 12:00:00 AM	12/27/2021 12:00:00 AM
SR22100692	NEW	"""Metal Furniture, Spec Collectn"""	"""MTL-FRN"""	"""Request entered through the Web. Refer to Intake Questions for further description."""	Public Services	2022-11-13	2022-11-13	2022-11-27	"""1808 MEARS AV, CINC - GJ2607729657"""	45230	39.0867671681645	-84.386156154207	11/13/2022 12:00:00 AM	11/13/2022 12:00:00 AM	11/13/2022 12:00:00 AM
SR22001094	NEW	"""Yard waste,rtc"""	"""YDWSTA-J"""	"""Transfer: 01/05/2022 3:58 PM/LMJOHNSONTRANSFERRED TO YARD WASTE  - Request entered through the Web. Refer to Intake Questions for further description."""	Public Services	2022-01-05	2022-01-05	2022-01-12	"""3894 DRAKEWOOD DR, CINC - GJ2181536619"""	45209	39.1505255449975	-84.4331045654232	01/05/2022 12:00:00 AM	01/05/2022 12:00:00 AM	01/05/2022 12:00:00 AM
SR22005876	NEW	"""Metal Furniture, Spec Collectn"""	"""MTL-FRN"""	""" """	Public Services	2022-01-24	2022-01-24	2022-02-07	"""863 ACADEMY AV - GJ0929531646 """	45205	39.108847100823	-84.5794074423561	01/24/2022 12:00:00 AM	01/24/2022 12:00:00 AM	01/24/2022 12:00:00 AM
SR22098283	NEW	"""Build, permit vio dur const ER"""	"""ERC_PV"""	"""Remove illegally dumped spoils from the property at 3120 Walworth and grade smooth. Provide permanent erosion control to prevent erosion from the entire site."""	Cinc Building Dept	2022-11-03	2022-11-03	2023-05-02	"""3118 WALWORTH AV - GJ2086833213 """	45226	39.1200981678098	-84.4451646130043	11/03/2022 12:00:00 AM	11/03/2022 12:00:00 AM	11/03/2022 12:00:00 AM
SR22080886	NEW	"""Metal Furniture, Spec Collectn"""	"""MTL-FRN"""	"""4 MATTRESSES/ 1 COUCH"""	Public Services	2022-09-01	2022-09-01	2022-09-15	"""132 W 65TH ST - GJ1692940993 """	45216	39.1911318105981	-84.4882031720813	09/01/2022 12:00:00 AM	09/01/2022 12:00:00 AM	09/14/2022 12:00:00 AM
SR22025339	NEW	"""Litter, private property"""	"""LITR-PRV"""	"""litter on property"""	Public Services	2022-03-21	2022-03-21	2022-05-05	"""1108 WELLS ST - GJ1019332027 """	45205	39.112067014698	-84.5689092694203	03/21/2022 12:00:00 AM	03/21/2022 12:00:00 AM	03/21/2022 12:00:00 AM
SR22002792	NEW	"""Zoning, cncntrtd code enf res"""	"""ZONCCER"""	"""Tree clearing and ground work occurring on vacant land within Hillside Overlay - tree clearing not permitted without excavation"""	Cinc Building Dept	2022-01-12	2022-01-12	2022-07-11	"""880 CLIFTON CREST TER - GJ1307636237 """	45220	39.1492670793928	-84.5342746410963	01/12/2022 12:00:00 AM	01/12/2022 12:00:00 AM	01/12/2022 12:00:00 AM
SR22026648	NEW	"""Metal Furniture, Spec Collectn"""	"""MTL-FRN"""	""" """	Public Services	2022-03-24	2022-03-24	2022-04-07	"""5408 READING RD - GJ1897739987 """	45237	39.1815608407875	-84.4648373631107	03/24/2022 12:00:00 AM	03/24/2022 12:00:00 AM	03/24/2022 12:00:00 AM
SR22055267	NEW	"""Building, residential"""	"""BLD-RES"""	"""PROPERTY CUT OFF ELECTRIC TO THE 2ND FLOOR RESIDENCE LEAVING THEM WITH NO ELECTRIC OR HOT WATER."""	Cinc Building Dept	2022-06-17	2022-06-17	2023-06-17	"""1060 SUNSET AV - GJ0880032030 """	45205	39.1124321020698	-84.5850093306468	06/17/2022 12:00:00 AM	06/17/2022 12:00:00 AM	06/17/2022 12:00:00 AM
SR22101167	NEW	"""Service complaint, trash"""	"""SVCCMPLT"""	"""citizen would like sanitation workers to stop leaving trash toters in the the middle of the driveway please set them off to the side"""	Public Services	2022-11-15	2022-11-15	2022-12-15	"""3767 CLIFTON AV - GJ1435636599 """	45220	39.152208243667	-84.5193584984562	11/15/2022 12:00:00 AM	11/15/2022 12:00:00 AM	11/15/2022 12:00:00 AM
SR22047211	NEW	"""Building, residential"""	"""BLD-RES"""	"""STREET LIGHT OUT"""	Cinc Building Dept	2022-05-25	2022-05-25	2023-05-25	"""6613 EAST LEDGE ST - GJ2615537864 """	45227	39.1606153900667	-84.3825220145625	05/25/2022 12:00:00 AM	05/25/2022 12:00:00 AM	05/25/2022 12:00:00 AM
SR22104551	CLOS	"""Pothole, repair"""	"""PTHOLE"""	"""POTHOLE REPAIR """	Public Services	2022-11-30	2022-11-30	2022-12-12	"""1235 VINE ST - GJ1483831840 """	45202	39.1092492935047	-84.5152945665039	11/30/2022 12:00:00 AM	11/30/2022 12:00:00 AM	11/30/2022 12:00:00 AM
SR22066946	NEW	"""Metal Furniture, Spec Collectn"""	"""MTL-FRN"""	""" """	Public Services	2022-07-20	2022-07-20	2022-08-03	"""374 TERRACE AV - GJ1408535482 """	45220	39.1422222546395	-84.5228417294918	07/20/2022 12:00:00 AM	07/20/2022 12:00:00 AM	07/20/2022 12:00:00 AM
SR22020148	OPEN	"""Damage Claim - TROD"""	"""DMGTROD"""	"""02/25/2022 @ 9:15 p.m. Citizen believes that a pot hole caused damage to his 2013 chevy impala front passenger tire. Curb lanes multiple pot holes reported right past the intersection heading north. 4-6 inches deep."""	Public Services	2022-03-03	2022-03-05	2022-04-02	"""2701 MONTANA AV - GJ0863236386 """	45211	39.1516837359055	-84.5856056747161	03/03/2022 12:00:00 AM	03/05/2022 12:00:00 AM	03/20/2022 12:00:00 AM
SR22069357	OPEN	"""Recycling, collect green cart"""	"""RCYCLNG"""	"""RTC- LATE SET OUT"""	City Manager's Office	2022-07-27	2022-07-27	2022-07-28	"""1352 WILLIAM H TAFT RD - GJ1785033929 """	45206	39.1273081725998	-84.4798192761556	07/27/2022 12:00:00 AM	07/27/2022 12:00:00 AM	07/27/2022 12:00:00 AM
SR22012574	CLOS	"""Pothole, repair"""	"""PTHOLE"""	"""Request entered through the Web. Refer to Intake Questions for further description."""	Public Services	2022-02-11	2022-03-01	2022-02-23	"""435 DORCHESTER AV, CINC - GJ1603032820"""	45219	39.1181691706538	-84.5005668133134	02/11/2022 12:00:00 AM	03/01/2022 12:00:00 AM	03/20/2022 12:00:00 AM
SR22002794	OPEN	"""Trash, request for collection"""	"""RF-COLLT"""	"""TRASH MISSED """	Public Services	2022-01-12	2022-01-12	2022-01-19	"""324 COLLINS AV - GJ1880333632 """	45202	39.1243962804023	-84.468902583825	01/12/2022 12:00:00 AM	01/12/2022 12:00:00 AM	01/12/2022 12:00:00 AM
SR22094399	NEW	"""Animal, waste problem"""	"""DOG_WSTE"""	"""*DOG KNOWN TO RUN LOOSE*LARGE VICIOUS  WASTE ALL OVER FRT YARD -  """	Cinc Health Dept	2022-10-18	2022-10-18	2023-04-16	"""861 ACADEMY AV - GJ0929231632 """	45205	39.1087228833616	-84.5794425460613	10/18/2022 12:00:00 AM	10/18/2022 12:00:00 AM	10/18/2022 12:00:00 AM
SR22025874	NEW	"""Tall grass/weeds, private prop"""	"""TLGR-PRV"""	"""TALL GRASS TEST COMPLAINT FOR TRAINING ONLY"""	Public Services	2022-03-22	2022-03-22	2022-05-06	"""805 CENTRAL AV - GJ1436631180 """	45203	39.1034246519743	-84.5209506076926	03/22/2022 12:00:00 AM	03/22/2022 12:00:00 AM	03/22/2022 12:00:00 AM
SR22080858	OPEN	"""Sidewalk, Obstructions"""	"""ADASDWKO"""	"""Request entered through the Web. Refer to Intake Questions for further description."""	Dept of Trans and Eng	2022-09-01	2022-09-01	2023-02-28	"""1331 MAIN ST, CINC - GJ1510032013"""	45202	39.1107531947842	-84.5121967672577	09/01/2022 12:00:00 AM	09/01/2022 12:00:00 AM	09/14/2022 12:00:00 AM
SR22069199	NEW	"""Speed humps, new"""	"""SPDHMPS"""	"""CITIZEN IS REQUESTING SPEED HUMPS ON CATALINA AVE. HE STATES TOO MANY VEHICLES SPEED ON THE STREET AND THAT THERE ARE ALOT OF CHILDERN."""	Dept of Trans and Eng	2022-07-27	2022-07-27	2022-08-03	"""1926 CATALINA AV - GJ1932038849 """	45237	39.1712353751779	-84.4612322483595	07/27/2022 12:00:00 AM	07/27/2022 12:00:00 AM	07/27/2022 12:00:00 AM
SR22055671	NEW	"""Trash cart, registration"""	"""TRSHCRTR"""	"""Request entered through the Web. Refer to Intake Questions for further description."""	Public Services	2022-06-20	2022-06-20	2022-07-12	"""4614 SIMPSON AV, CINC - GJ2556137333"""	45227	39.1559942982568	-84.3895621798807	06/20/2022 12:00:00 AM	06/20/2022 12:00:00 AM	06/20/2022 12:00:00 AM
SR21044937	OPEN	"""Building, residential"""	"""BLD-RES"""	"""Request entered through the Web. Refer to Intake Questions for further description."""	Cinc Building Dept	2021-05-26	2021-06-16	2022-05-26	"""1732 SUTTON AV, CINC - """	45230	39.0860931929694	-84.3899332057366	05/26/2021 12:00:00 AM	06/16/2021 12:00:00 AM	06/16/2021 12:00:00 AM
SR22081614	NEW	"""Light, EDS street light new"""	"""LGHT,TSN"""	"""Request entered through the Web. Refer to Intake Questions for further description."""	Dept of Trans and Eng	2022-09-04	2022-09-04	2022-12-03	"""335 W 5TH ST, CINC - """	45202	39.0997776792462	-84.518734612895	09/04/2022 12:00:00 AM	09/04/2022 12:00:00 AM	09/14/2022 12:00:00 AM
SR22071695	NEW	"""Metal Furniture, Spec Collectn"""	"""MTL-FRN"""	"""Request entered through the Web. Refer to Intake Questions for further description."""	Public Services	2022-08-03	2022-08-03	2022-08-17	"""4607 GLENSHADE AV, CINC - GJ2561437298"""	45227	39.1556636199235	-84.3889571815151	08/03/2022 12:00:00 AM	08/03/2022 12:00:00 AM	08/03/2022 12:00:00 AM
SR22079695	NEW	"""Elevator, HAZARD"""	"""BLD-ELEH"""	"""Barricade escalators that are not in use"""	Cinc Building Dept	2022-08-29	2022-08-29	2023-02-25	"""441 VINE ST - GJ1505730914 """	45202	39.1008569906186	-84.5130521542198	08/29/2022 12:00:00 AM	08/29/2022 12:00:00 AM	09/14/2022 12:00:00 AM
SR22021708	OPEN	"""Street cleaning"""	"""SCLEN1"""	"""Transfer: 03/15/2022 10:40 AM/RMCCRAY30 -40 BAGS - Across the street is a vacant lot which has about 30 trash bags that was dumped."""	Public Services	2022-03-08	2022-03-18	2022-03-22	"""612 UNION ST - GJ1642434868 """	45229	39.1361182138679	-84.496003042854	03/08/2022 12:00:00 AM	03/18/2022 12:00:00 AM	03/20/2022 12:00:00 AM
SR22074621	CLOS	"""Restaurant consult, new lic"""	"""RCNEWLIC"""	""" """	Cinc Health Dept	2022-08-12	2022-08-12	2023-02-08	"""7801 ANTHONY WAYNE AV - GJ1824442095 """	45216	39.2007241063401	-84.4726266998157	08/12/2022 12:00:00 AM	08/12/2022 12:00:00 AM	08/12/2022 12:00:00 AM
SR22044512	NEW	"""Sign, down/missing """	"""STRSGN"""	"""ADOPT A SPOT KEEP CINCINNATI BEAUTIFUL SIGN HAS BEEN KNOCKED DOWN WITH THE POLE STICKING OUT OF THE GROUND CURRENTLY COVERED WITH A CONE"""	Public Services	2022-05-18	2022-05-18	2022-05-19	"""3001 PRICE AV - GJ1087131449 """	45205	39.1066996957236	-84.561253791347	05/18/2022 12:00:00 AM	05/18/2022 12:00:00 AM	05/18/2022 12:00:00 AM
SR22036230	NEW	"""Tall grass/weeds, private prop"""	"""TLGR-PRV"""	"""Request entered through the Web. Refer to Intake Questions for further description."""	Public Services	2022-04-25	2022-04-25	2022-06-09	"""2262 RICE ST, CINC - GJ1499633261"""	45219	39.1219961691913	-84.5130191037669	04/25/2022 12:00:00 AM	04/25/2022 12:00:00 AM	05/07/2022 12:00:00 AM
SR21088784	CLOS	"""Mold, building or apartment"""	"""MOLD"""	"""BATHROOM"""	Cinc Health Dept	2021-10-08	2021-10-18	2022-04-06	"""1837 LOSANTIVILLE AV - GJ1955741039 """	45237	39.1908857321732	-84.4577787872699	10/08/2021 12:00:00 AM	10/18/2021 12:00:00 AM	11/06/2021 12:00:00 AM
SR22110093	NEW	"""Slippery streets, request"""	"""SLPYST"""	"""on glenway at wilder """	Public Services	2022-12-23	2022-12-23	2022-12-23	"""GLENWAY AV & WILDER AV - GJ1149531554 """	45204	39.1074928480163	-84.5540155277948	12/23/2022 12:00:00 AM	12/23/2022 12:00:00 AM	12/31/2022 12:00:00 AM
SR22073923	NEW	"""Building, vacant and open res"""	"""BLD_VACR"""	"""Request entered through the Web. Refer to Intake Questions for further description."""	Cinc Building Dept	2022-08-10	2022-08-10	2022-10-21	"""6504 EDWOOD AV, CINC - GJ1257642615"""	45224	39.206810885045	-84.5380450598293	08/10/2022 12:00:00 AM	08/10/2022 12:00:00 AM	08/10/2022 12:00:00 AM
SR22054880	NEW	"""Metal Furniture, Spec Collectn"""	"""MTL-FRN"""	""" """	Public Services	2022-06-16	2022-06-16	2022-06-30	"""6748 PALMETTO ST - GJ2629336894 """	45227	39.1518508452793	-84.3812468175077	06/16/2022 12:00:00 AM	06/16/2022 12:00:00 AM	06/16/2022 12:00:00 AM
SR22093681	NEW	"""Trash, request for new service"""	"""TRSHRQNS"""	""" """	Public Services	2022-10-15	2022-10-15	2022-10-22	"""4235 WILLIAMSON PL - GJ1276637894 """	45223	39.164266105537	-84.5373334782551	10/15/2022 12:00:00 AM	10/15/2022 12:00:00 AM	10/15/2022 12:00:00 AM
SR22060925	NEW	"""Building, residential"""	"""BLD-RES"""	"""Front door malfunctioning, roof leaking"""	Cinc Building Dept	2022-07-06	2022-07-06	2023-07-06	"""1238 SUNSET AV - GJ0884432395 """	45205	39.1157004541265	-84.5843905584107	07/06/2022 12:00:00 AM	07/06/2022 12:00:00 AM	07/06/2022 12:00:00 AM
SR22067741	NEW	"""Default, police (and junk veh)"""	"""DFLTPLC"""	"""Request entered through the Web. Refer to Intake Questions for further description."""	Police Department	2022-07-22	2022-07-22	2022-07-23	"""2240 CLAYLAND ST, CINC - """	45207	39.1436419857125	-84.4574118774469	07/22/2022 12:00:00 AM	07/22/2022 12:00:00 AM	07/22/2022 12:00:00 AM
SR22093748	NEW	"""Metal Furniture, Spec Collectn"""	"""MTL-FRN"""	"""Request entered through the Web. Refer to Intake Questions for further description."""	Public Services	2022-10-16	2022-10-16	2022-10-30	"""2531 STANTON AV, CINC - GJ1673033894"""	45206	39.1272813089813	-84.4927657435765	10/16/2022 12:00:00 AM	10/16/2022 12:00:00 AM	10/16/2022 12:00:00 AM
SR22016837	CLOS	"""Pothole, repair"""	"""PTHOLE"""	""" """	Public Services	2022-02-23	2022-02-27	2022-03-07	"""MCHENRY AV & CAVANAUGH AV - GJ0965935636 """	45211	39.1446861240679	-84.573960386272	02/23/2022 12:00:00 AM	02/27/2022 12:00:00 AM	03/20/2022 12:00:00 AM
SR22018288	CLOS	"""Pothole, repair"""	"""PTHOLE"""	"""Request entered through the Web. Refer to Intake Questions for further description."""	Public Services	2022-02-26	2022-03-03	2022-03-10	"""668 FAIRBANKS AV, CINC - GJ1022831047"""	45205	39.1032420060012	-84.5688048062224	02/26/2022 12:00:00 AM	03/03/2022 12:00:00 AM	03/20/2022 12:00:00 AM
SR21071017	OPEN	"""Building, residential"""	"""BLD-RES"""	""" """	Cinc Building Dept	2021-08-10	2021-09-15	2022-08-10	"""3619 NORTHDALE PL - GJ2340540112 """	45213	39.1815581642167	-84.4135770898012	08/10/2021 12:00:00 AM	09/15/2021 12:00:00 AM	09/15/2021 12:00:00 AM
SR22051982	OPEN	"""Sign, down/missing stop sign"""	"""SGNDNA"""	"""STOP SIGN DOWN AT WASSON & HYDE PARK"""	Public Services	2022-06-09	2022-06-09	2022-06-10	"""WASSON RD & HYDE PARK AV - GJ2147335943 """	45209	39.1445266149606	-84.4372810509743	06/09/2022 12:00:00 AM	06/09/2022 12:00:00 AM	06/09/2022 12:00:00 AM
SR22072745	NEW	"""Metal Furniture, Spec Collectn"""	"""MTL-FRN"""	""" """	Public Services	2022-08-08	2022-08-08	2022-08-22	"""754 BEECHWOOD AV - GJ1436239183 """	45232	39.1754686604126	-84.5184709007728	08/08/2022 12:00:00 AM	08/08/2022 12:00:00 AM	08/08/2022 12:00:00 AM
SR22101855	NEW	"""Plumbing, defective"""	"""PLMB_DEF"""	"""BATHRUB LEAKS """	Cinc Health Dept	2022-11-17	2022-11-17	2023-05-16	"""3069 GLENMORE AV - GJ0621434993 """	45238	39.1397254491013	-84.6139896662073	11/17/2022 12:00:00 AM	11/17/2022 12:00:00 AM	11/17/2022 12:00:00 AM
SR22107853	OPEN	"""Recycling, information request"""	"""RECCINFO"""	"""CALLER HAS SET OUT SERVICE THROUGH CITY - REQUESTING SET OUT SERVICE FOR RECYCLING AS WELL """	City Manager's Office	2022-12-13	2022-12-15	2022-12-18	"""2798 LOSANTIVILLE AV - GJ2156240689 """	45213	39.1872247618776	-84.4347071276735	12/13/2022 12:00:00 AM	12/15/2022 12:00:00 AM	12/31/2022 12:00:00 AM
SR22062408	CLOS	"""Dumping, prv prop <2500 sq ft"""	"""DUMP-PVS"""	"""Request entered through the Web. Refer to Intake Questions for further description."""	Public Services	2022-07-08	2022-07-08	2022-08-22	"""1706 BALTIMORE AV, CINC - GJ1169134530"""	45225	39.1342443316478	-84.5508087112798	07/08/2022 12:00:00 AM	07/08/2022 12:00:00 AM	07/08/2022 12:00:00 AM
SR22063155	NEW	"""Metal Furniture, Spec Collectn"""	"""MTL-FRN"""	"""Request entered through the Web. Refer to Intake Questions for further description."""	Public Services	2022-07-11	2022-07-11	2022-07-25	"""716 MANNINGTON AV, CINC - GJ2266733585"""	45226	39.1229987099492	-84.4242424000464	07/11/2022 12:00:00 AM	07/11/2022 12:00:00 AM	07/11/2022 12:00:00 AM
SR22080541	CLOS	"""Sign, down/missing """	"""STRSGN"""	"""PER 537 @1038AM INSTALLED A SPEED LIMIT SIGN (25MPH)"""	Public Services	2022-08-31	2022-08-31	2022-09-01	"""5914 CARY AV - GJ1154741776 """	45224	39.199510942119	-84.5502151349188	08/31/2022 12:00:00 AM	08/31/2022 12:00:00 AM	09/14/2022 12:00:00 AM
SR22060194	NEW	"""Default, City"""	"""DFLTCITY"""	"""Request entered through the Web. Refer to Intake Questions for further description."""	Public Services	2022-07-03	2022-07-03	2022-07-13	"""4010 PADDOCK RD, CINC - GJ1775437211"""	45229	39.1568823055509	-84.4798727002259	07/03/2022 12:00:00 AM	07/03/2022 12:00:00 AM	07/03/2022 12:00:00 AM
SR22081623	CLOS	"""Tires, Special Collection"""	"""TIRES"""	"""Request entered through the Web. Refer to Intake Questions for further description."""	Public Services	2022-09-04	2022-09-08	2022-09-18	"""245 TWAIN AV, CINC - FJ9996632028"""	45233	39.1144912703656	-84.687110276273	09/04/2022 12:00:00 AM	09/08/2022 12:00:00 AM	09/14/2022 12:00:00 AM
SR22067976	NEW	"""Metal Furniture, Spec Collectn"""	"""MTL-FRN"""	"""Request entered through the Web. Refer to Intake Questions for further description."""	Public Services	2022-07-24	2022-07-24	2022-08-07	"""1527 CHASE AV, CINC - GJ1275237748"""	45223	39.1629552359727	-84.5375388959958	07/24/2022 12:00:00 AM	07/24/2022 12:00:00 AM	07/24/2022 12:00:00 AM
SR22100891	NEW	"""Metal Furniture, Spec Collectn"""	"""MTL-FRN"""	""" """	Public Services	2022-11-14	2022-11-14	2022-11-28	"""4754 HART AV - GJ1226539525 """	45223	39.1790720204042	-84.5426216070467	11/14/2022 12:00:00 AM	11/14/2022 12:00:00 AM	11/14/2022 12:00:00 AM
SR22046243	PEND	"""Recycling, remove cart"""	"""REMOVE"""	"""REMOVE 2 RECYCLING CARTS"""	City Manager's Office	2022-05-23	2022-05-23	2022-06-09	"""5721 PEABODY AV - GJ2505037559 """	45227	39.1581509859762	-84.395398040339	05/23/2022 12:00:00 AM	05/23/2022 12:00:00 AM	05/23/2022 12:00:00 AM
SR22089622	NEW	"""Building, residential"""	"""BLD-RES"""	"""outlets don't work/pipe leaking/floor broken/no permit for deck/bad wiring"""	Cinc Building Dept	2022-09-30	2022-09-30	2023-09-30	"""1557 TREMONT ST - GJ1192233754 """	45214	39.1271960084713	-84.5483888377425	09/30/2022 12:00:00 AM	09/30/2022 12:00:00 AM	09/30/2022 12:00:00 AM
SR22073013	NEW	"""Trash cart, repair"""	"""TRREPR"""	""" """	Public Services	2022-08-08	2022-08-08	2022-08-25	"""1833 WYNNEWOOD LN - GJ1983042753 """	45237	39.206247780548	-84.4540699504657	08/08/2022 12:00:00 AM	08/08/2022 12:00:00 AM	08/08/2022 12:00:00 AM
SR22088048	NEW	"""Metal Furniture, Spec Collectn"""	"""MTL-FRN"""	"""Request entered through the Web. Refer to Intake Questions for further description."""	Public Services	2022-09-25	2022-09-25	2022-10-09	"""1101 SUNNYSLOPE DR, CINC - GJ1766438083"""	45229	39.1647568184256	-84.48062722307	09/25/2022 12:00:00 AM	09/25/2022 12:00:00 AM	09/25/2022 12:00:00 AM
SR22068849	NEW	"""Metal Furniture, Spec Collectn"""	"""MTL-FRN"""	""" """	Public Services	2022-07-26	2022-07-26	2022-08-09	"""374 GRAND AV - GJ1084030313 """	45205	39.0964787355919	-84.5619658404469	07/26/2022 12:00:00 AM	07/26/2022 12:00:00 AM	07/26/2022 12:00:00 AM
SR22028360	NEW	"""Light, repair"""	"""STRTLITE"""	"""Request entered through the Web. Refer to Intake Questions for further description."""	Dept of Trans and Eng	2022-03-30	2022-03-30	2022-03-31	"""320 E 4TH ST, CINC - GJ1557730945"""	45202	39.1010193227871	-84.5070190966476	03/30/2022 12:00:00 AM	03/30/2022 12:00:00 AM	03/30/2022 12:00:00 AM
SR22040344	NEW	"""Default, City"""	"""DFLTCITY"""	"""Request entered through the Web. Refer to Intake Questions for further description."""	Public Services	2022-05-07	2022-05-07	2022-05-17	"""914 SUNSET AV, CINC - GJ0878131661"""	45205	39.1091113650166	-84.5853339081731	05/07/2022 12:00:00 AM	05/07/2022 12:00:00 AM	05/07/2022 12:00:00 AM
SR22041176	CLOS	"""Trash, tagged collections"""	"""TGGDCLLC"""	"""PER 810@ 9:27AM- CART FILLED WITH YW , TAGGED """	Public Services	2022-05-10	2022-05-10	2022-05-17	"""4051 CLIFTON AV - GJ1464537421 """	45220	39.1595432185163	-84.5157559187297	05/10/2022 12:00:00 AM	05/10/2022 12:00:00 AM	05/10/2022 12:00:00 AM
SR22097532	NEW	"""Building, residential"""	"""BLD-RES"""	"""Issue order for rebuild of front porch"""	Cinc Building Dept	2022-10-31	2022-10-31	2023-10-31	"""805 WOODLAWN AV - GJ1029831361 """	45205	39.1060484755263	-84.5679003637959	10/31/2022 12:00:00 AM	10/31/2022 12:00:00 AM	10/31/2022 12:00:00 AM
SR22020086	CLOS	"""Pothole, repair"""	"""PTHOLE"""	"""PER 548@ 8:48AM- 2 POTHOLES/1 BAG COLD PATCH """	Public Services	2022-03-03	2022-03-04	2022-03-15	"""6506 HOME CITY AV - FJ9996031768 """	45233	39.1121405624033	-84.6872416488889	03/03/2022 12:00:00 AM	03/04/2022 12:00:00 AM	03/20/2022 12:00:00 AM
SR22016958	CLOS	"""Pothole, repair"""	"""PTHOLE"""	"""Request entered through the Web. Refer to Intake Questions for further description."""	Public Services	2022-02-23	2022-02-25	2022-03-07	"""132 CALHOUN ST, CINC - """	45219	39.1283894398931	-84.5144538563238	02/23/2022 12:00:00 AM	02/25/2022 12:00:00 AM	03/20/2022 12:00:00 AM
SR22054723	NEW	"""Trash cart, repair"""	"""TRREPR"""	"""TRASH CART LID REPAIR """	Public Services	2022-06-16	2022-06-16	2022-07-03	"""859 ROCKDALE AV - GJ1714135747 """	45229	39.143853516107	-84.4874339491413	06/16/2022 12:00:00 AM	06/16/2022 12:00:00 AM	06/16/2022 12:00:00 AM
SR22104497	NEW	"""Default, police (and junk veh)"""	"""DFLTPLC"""	"""Request entered through the Web. Refer to Intake Questions for further description."""	Police Department	2022-11-29	2022-11-29	2022-11-30	"""1715 CARRAHEN AV, CINC - GJ1902140057"""	45237	39.1821855147516	-84.4642761291617	11/29/2022 12:00:00 AM	11/29/2022 12:00:00 AM	11/29/2022 12:00:00 AM
SR22056403	NEW	"""Yard waste,rtc"""	"""YDWSTA-J"""	"""3- BAGS YARD WASTE NOT COLLECTED """	Public Services	2022-06-22	2022-06-22	2022-06-29	"""1130 FAIRBANKS AV - GJ1029832143 """	45205	39.113086129296	-84.5676666163503	06/22/2022 12:00:00 AM	06/22/2022 12:00:00 AM	06/22/2022 12:00:00 AM
SR22062664	CLOS	"""Default, City"""	"""DFLTCITY"""	"""Request entered through the Web. Refer to Intake Questions for further description."""	Public Services	2022-07-09	2022-07-09	2022-07-19	"""901 MT HOPE AV, CINC - GJ1111731480"""	45204	39.106920735684	-84.5583979879365	07/09/2022 12:00:00 AM	07/09/2022 12:00:00 AM	07/09/2022 12:00:00 AM
SR22058279	OPEN	"""Barricade, setup/remve"""	"""BARRIC"""	"""Email - Can someone pick up the barricade laying on the sidewalk at 25 Findlay St.  Itâ€™s left over from the Opening Day Parade."""	Public Services	2022-06-27	2022-06-27	2022-06-29	"""24 FINDLAY ST - GJ1458232669 """	45202	39.1167767714706	-84.5179921656057	06/27/2022 12:00:00 AM	06/27/2022 12:00:00 AM	06/27/2022 12:00:00 AM
SR22021655	CLOS	"""Metal Furniture, Spec Collectn"""	"""MTL-FRN"""	"""AWARE TO SIT ITEMS OUT THE NIGHT BEFORE PICKUP"""	Public Services	2022-03-08	2022-03-08	2022-03-22	"""2554 BONNIE DR - GJ2594431440 """	45230	39.1028421899755	-84.3870982326736	03/08/2022 12:00:00 AM	03/08/2022 12:00:00 AM	03/20/2022 12:00:00 AM
SR22004723	OPEN	"""Special collections, rtc"""	"""BLKYTMST"""	"""RTC-missed collection-01/19/2021, stove was out front the night before. Please drive all the way down the no-outlet street."""	Public Services	2022-01-19	2022-01-19	2022-01-26	"""6660 JERSEY AV - FJ9961231991 """	45233	39.1142327025367	-84.6912023472908	01/19/2022 12:00:00 AM	01/19/2022 12:00:00 AM	01/19/2022 12:00:00 AM
SR22083830	NEW	"""Metal Furniture, Spec Collectn"""	"""MTL-FRN"""	"""Request entered through the Web. Refer to Intake Questions for further description."""	Public Services	2022-09-11	2022-09-11	2022-09-25	"""6064 WALDWAY LN, CINC - GJ1331342003"""	45224	39.2011265354911	-84.529708931481	09/11/2022 12:00:00 AM	09/11/2022 12:00:00 AM	09/14/2022 12:00:00 AM
SR22078451	NEW	"""Metal Furniture, Spec Collectn"""	"""MTL-FRN"""	"""Request entered through the Web. Refer to Intake Questions for further description."""	Public Services	2022-08-24	2022-08-24	2022-09-07	"""1739 BEACON ST, CINC - GJ2643729551"""	45230	39.0857166047092	-84.382026331343	08/24/2022 12:00:00 AM	08/24/2022 12:00:00 AM	09/14/2022 12:00:00 AM
SR22064761	NEW	"""Litter, private property"""	"""LITR-PRV"""	"""Request entered through the Web. Refer to Intake Questions for further description."""	Public Services	2022-07-14	2022-07-14	2022-08-28	"""505 HAWTHORNE AV, CINC - GJ1071830625"""	45205	39.0993227628137	-84.5632687122263	07/14/2022 12:00:00 AM	07/14/2022 12:00:00 AM	07/14/2022 12:00:00 AM
SR22070190	NEW	"""Vehicle, abandon priv p access"""	"""ABAN-VPR"""	"""Request entered through the Web. Refer to Intake Questions for further description."""	Cinc Health Dept	2022-07-29	2022-07-29	2022-09-17	"""4043 W LIBERTY ST, CINC - GJ0914932550"""	45205	39.117025405714	-84.5808091346533	07/29/2022 12:00:00 AM	07/29/2022 12:00:00 AM	07/29/2022 12:00:00 AM
SR21071150	CLOS	"""Constructn, build w/o permit"""	"""BLDNOPC"""	"""Transfer: 08/11/2021 8:08 AM/LMJOHNSONTRANSFERRED TO BUILDINGS - Request entered through the Web. Refer to Intake Questions for further description."""	Cinc Building Dept	2021-08-10	2021-08-16	2022-02-07	"""721 BEECHWOOD AV, CINC - GJ1448639137"""	45232	39.1750348528969	-84.5170435698475	08/10/2021 12:00:00 AM	08/16/2021 12:00:00 AM	08/16/2021 12:00:00 AM
SR22047726	NEW	"""Tall grass/weeds, private prop"""	"""TLGR-PRV"""	"""Request entered through the Web. Refer to Intake Questions for further description."""	Public Services	2022-05-26	2022-05-26	2022-07-10	"""5510 COLERAIN AV, CINC - GJ0980640863"""	45239	39.191713839198	-84.570640653254	05/26/2022 12:00:00 AM	05/26/2022 12:00:00 AM	05/26/2022 12:00:00 AM
SR22034189	CLOS	"""Trash, request for collection"""	"""RF-COLLT"""	"""Request entered through the Web. Refer to Intake Questions for further description."""	Public Services	2022-04-19	2022-04-25	2022-04-26	"""1533 ST LEGER PL, CINC - GJ1795835123"""	45207	39.1380386362183	-84.4781748190067	04/19/2022 12:00:00 AM	04/25/2022 12:00:00 AM	05/07/2022 12:00:00 AM
SR22072805	NEW	"""Default, police (and junk veh)"""	"""DFLTPLC"""	"""Request entered through the Web. Refer to Intake Questions for further description."""	Police Department	2022-08-08	2022-08-08	2022-08-09	"""1202 E MCMILLAN ST, CINC - GJ1747633748"""	45206	39.1257806830422	-84.4841871148108	08/08/2022 12:00:00 AM	08/08/2022 12:00:00 AM	08/08/2022 12:00:00 AM
SR21076939	OPEN	"""Building, com concntrtd code e"""	"""CBHCCE-C"""	"""West End NEP - Area 212"""	Cinc Building Dept	2021-08-30	2021-09-13	2022-08-30	"""1105 DAYTON ST - GJ1326132806 """	45214	39.1183371066288	-84.5332107670597	08/30/2021 12:00:00 AM	09/13/2021 12:00:00 AM	09/13/2021 12:00:00 AM
SR22019672	CLOS	"""Trash, empty cans left out """	"""TRASH-L"""	"""Rumpke can left out on side walk for the last month."""	Public Services	2022-03-02	2022-03-04	2022-03-03	"""4010 PALOS ST - GJ0912531025 """	45205	39.1032992057166	-84.5815592458504	03/02/2022 12:00:00 AM	03/04/2022 12:00:00 AM	03/20/2022 12:00:00 AM
SR22014113	CLOS	"""Metal Furniture, Spec Collectn"""	"""MTL-FRN"""	"""Request entered through the Web. Refer to Intake Questions for further description."""	Public Services	2022-02-16	2022-03-02	2022-03-02	"""5719 GLENGATE LN, CINC - GJ2159839522"""	45212	39.1767182897651	-84.4346613230965	02/16/2022 12:00:00 AM	03/02/2022 12:00:00 AM	03/20/2022 12:00:00 AM
SR22097720	CLOS	"""Trash, tagged collections"""	"""TGGDCLLC"""	"""PER 691- BOXES OUT TO CURB WITH TRASH AND WET. UNABLE TO COLLECT. PICKED UP WHAT THE DRIVER COULD, TAGGED."""	Public Services	2022-11-01	2022-11-01	2022-11-08	"""3308 HEWITT CRESCENT - GJ1930435047 """	45207	39.1370117254403	-84.4626508964533	11/01/2022 12:00:00 AM	11/01/2022 12:00:00 AM	11/01/2022 12:00:00 AM
SR22033906	CLOS	"""Tires, Special Collection"""	"""TIRES"""	"""Request entered through the Web. Refer to Intake Questions for further description."""	Public Services	2022-04-19	2022-04-26	2022-05-03	"""1218 ILIFF AV, CINC - GJ0925732317"""	45205	39.1149042189589	-84.5796394046296	04/19/2022 12:00:00 AM	04/26/2022 12:00:00 AM	05/07/2022 12:00:00 AM
SR22049520	NEW	"""Metal Furniture, Spec Collectn"""	"""MTL-FRN"""	"""6/2/2022 11:30 AM/JPRESNELL - added chair and ottoman."""	Public Services	2022-06-02	2022-06-02	2022-06-16	"""3748 DAVENANT AV - GJ2373339385 """	45213	39.1749351401391	-84.4100201978814	06/02/2022 12:00:00 AM	06/02/2022 12:00:00 AM	06/02/2022 12:00:00 AM
SR22071240	NEW	"""Litter, private property"""	"""LITR-PRV"""	"""Request entered through the Web. Refer to Intake Questions for further description."""	Public Services	2022-08-02	2022-08-02	2022-09-16	"""2144 STORRS ST, CINC - GJ1163831096"""	45204	39.1033425588192	-84.552494999477	08/02/2022 12:00:00 AM	08/02/2022 12:00:00 AM	08/02/2022 12:00:00 AM
SR22069549	NEW	"""Yard waste,rtc"""	"""YDWSTA-J"""	"""MISSED YARD WASTE """	Public Services	2022-07-28	2022-07-28	2022-08-04	"""1130 HERSCHEL AV - GJ2272034071 """	45208	39.1273586642026	-84.4234837584578	07/28/2022 12:00:00 AM	07/28/2022 12:00:00 AM	07/28/2022 12:00:00 AM
SR22044999	NEW	"""Building, residential"""	"""BLD-RES"""	"""Leaking water and Mold"""	Cinc Building Dept	2022-05-19	2022-05-19	2023-05-19	"""416 W 9TH ST - GJ1432131288 """	45203	39.1044103440405	-84.5214371524669	05/19/2022 12:00:00 AM	05/19/2022 12:00:00 AM	05/19/2022 12:00:00 AM
SR22037534	NEW	"""Metal Furniture, Spec Collectn"""	"""MTL-FRN"""	""" """	Public Services	2022-04-28	2022-04-28	2022-05-12	"""549 CARPLIN PL - GJ1644835158 """	45229	39.1387227355353	-84.495625588436	04/28/2022 12:00:00 AM	04/28/2022 12:00:00 AM	05/07/2022 12:00:00 AM
SR22034474	CLOS	"""Metal Furniture, Spec Collectn"""	"""MTL-FRN"""	""" """	Public Services	2022-04-20	2022-05-06	2022-05-04	"""3631 MCHENRY AV - GJ1065136251 """	45225	39.149985747263	-84.5623078656501	04/20/2022 12:00:00 AM	05/06/2022 12:00:00 AM	05/07/2022 12:00:00 AM
SR22045516	NEW	"""Tall grass/weeds, private prop"""	"""TLGR-PRV"""	"""Request entered through the Web. Refer to Intake Questions for further description."""	Public Services	2022-05-20	2022-05-20	2022-07-04	"""1755 GRAND AV, CINC - GJ1100932794"""	45214	39.118772762553	-84.5592455066749	05/20/2022 12:00:00 AM	05/20/2022 12:00:00 AM	05/20/2022 12:00:00 AM
SR22031439	CLOS	"""Trash cart, repair"""	"""TRREPR"""	"""PER 863@ 10:32AM - CAN WITH DOG FECES IN THE CAN - NEEDS ANOTHER 65G TOBE DROPPED OFF """	Public Services	2022-04-11	2022-04-15	2022-04-28	"""311 HILTON PL - GJ1587033981 """	45219	39.1282720033046	-84.5026877517626	04/11/2022 12:00:00 AM	04/15/2022 12:00:00 AM	05/07/2022 12:00:00 AM
SR22056926	NEW	"""Dumping, prv prop <2500 sq ft"""	"""DUMP-PVS"""	""" """	Public Services	2022-06-23	2022-06-23	2022-08-07	"""FRANCIS LN & KEMPER LN - GJ1730532981 """	45206	39.1189149769439	-84.4864260175908	06/23/2022 12:00:00 AM	06/23/2022 12:00:00 AM	06/23/2022 12:00:00 AM
SR22109926	CLOS	"""Pothole, repair"""	"""PTHOLE"""	"""Request entered through the Web. Refer to Intake Questions for further description."""	Public Services	2022-12-22	2022-12-28	2023-01-03	"""3401 CARDIFF AV, CINC - GJ2270037098"""	45209	39.1547858099066	-84.4228162998082	12/22/2022 12:00:00 AM	12/28/2022 12:00:00 AM	12/31/2022 12:00:00 AM
SR22035766	NEW	"""Metal Furniture, Spec Collectn"""	"""MTL-FRN"""	"""AWARE TO SIT ITEMS OUT THE NIGHT BEFORE PICKUP"""	Public Services	2022-04-25	2022-04-25	2022-05-09	"""7858 GREENLAND PL - GJ1935642801 """	45237	39.2068009336513	-84.4595390316767	04/25/2022 12:00:00 AM	04/25/2022 12:00:00 AM	05/07/2022 12:00:00 AM
SR22049056	OPEN	"""Tall grass/weeds, private prop"""	"""TLGR-PRV"""	"""Request entered through the Web. Refer to Intake Questions for further description."""	Public Services	2022-06-01	2022-06-01	2022-07-16	"""798 DELHI AV, CINC - GJ0987629962"""	45204	39.0935537081342	-84.5732072562524	06/01/2022 12:00:00 AM	06/01/2022 12:00:00 AM	06/01/2022 12:00:00 AM
SR22086390	NEW	"""Tires, Special Collection"""	"""TIRES"""	""" """	Public Services	2022-09-19	2022-09-19	2022-10-03	"""5376 EAGLESWATCH CT - GJ2439029940 """	45230	39.0897424999735	-84.4055543491881	09/19/2022 12:00:00 AM	09/19/2022 12:00:00 AM	09/19/2022 12:00:00 AM
SR22066874	NEW	"""Litter, private property"""	"""LITR-PRV"""	"""RECLINER SITTING ON THE SIDEWALK"""	Public Services	2022-07-20	2022-07-20	2022-09-03	"""1030 SUNSET AV - GJ0879331893 """	45205	39.1111968396604	-84.5851278224577	07/20/2022 12:00:00 AM	07/20/2022 12:00:00 AM	07/20/2022 12:00:00 AM
SR22095255	NEW	"""Tires, Special Collection"""	"""TIRES"""	"""Request pickup of 1 tire and a yard cart."""	Public Services	2022-10-21	2022-10-21	2022-11-04	"""2463 OAKTREE PL - GJ0871633729 """	45238	39.1277407483085	-84.5854526623135	10/21/2022 12:00:00 AM	10/21/2022 12:00:00 AM	10/21/2022 12:00:00 AM
SR22101930	NEW	"""Litter, private property"""	"""LITR-PRV"""	"""Request entered through the Web. Refer to Intake Questions for further description."""	Public Services	2022-11-17	2022-11-17	2023-01-01	"""4918 RALPH AV, CINC - GJ0735232891"""	45238	39.1205306357839	-84.6014640730957	11/17/2022 12:00:00 AM	11/17/2022 12:00:00 AM	11/17/2022 12:00:00 AM
SR22018178	CLOS	"""Default, police (and junk veh)"""	"""DFLTPLC"""	"""MOTOR CYCLE ON STREET FOR OVER 6 MONTHS NO TAGS"""	Police Department	2022-02-25	2022-03-01	2022-02-26	"""4227 ALLENDORF DR - GJ2367637164 """	45209	39.1549578447879	-84.4114138402835	02/25/2022 12:00:00 AM	03/01/2022 12:00:00 AM	03/20/2022 12:00:00 AM
SR22084164	CLOS	"""Trash, improper set out"""	"""TRASH-I"""	"""Request entered through the Web. Refer to Intake Questions for further description."""	Public Services	2022-09-12	2022-09-12	2022-09-19	"""218 W 3RD ST, CINC - GJ1477930612"""	45202	39.0982153426845	-84.5163495107284	09/12/2022 12:00:00 AM	09/12/2022 12:00:00 AM	09/14/2022 12:00:00 AM
SR22069504	NEW	"""Tall grass/weeds, private prop"""	"""TLGR-PRV"""	"""Request entered through the Web. Refer to Intake Questions for further description."""	Public Services	2022-07-28	2022-07-28	2022-09-11	"""3186 HARRISON AV, CINC - GJ0718936553"""	45211	39.153544764007	-84.6022394109134	07/28/2022 12:00:00 AM	07/28/2022 12:00:00 AM	07/28/2022 12:00:00 AM
SR22058363	NEW	"""Graffiti, removal"""	"""GRFITI"""	"""Request entered through the Web. Refer to Intake Questions for further description."""	Public Services	2022-06-27	2022-06-27	2022-07-27	"""1752 ART MUSEUM DR, CINC - GJ1647632257"""	45202	39.1126033306644	-84.4962099815753	06/27/2022 12:00:00 AM	06/27/2022 12:00:00 AM	06/27/2022 12:00:00 AM
SR22069353	CLOS	"""Trash cart, registration"""	"""TRSHCRTR"""	"""1 SET OF REGISTRATION STICKERS"""	Public Services	2022-07-27	2022-07-27	2022-08-18	"""3214 CLOSE CT - GJ2228034340 """	45208	39.1298900702609	-84.4284823666977	07/27/2022 12:00:00 AM	07/27/2022 12:00:00 AM	07/27/2022 12:00:00 AM
SR22068261	NEW	"""Animal, waste problem"""	"""DOG_WSTE"""	"""IN THE BACK OF BUILDING IS PILES OF DOG WASTE, VIEWABLE FROM THE SIDE WALK ON THE SIDE ON SOUTHERN AVE"""	Cinc Health Dept	2022-07-25	2022-07-25	2023-01-21	"""2058 AUBURN AV - GJ1542033060 """	45219	39.1200862694495	-84.5081802067754	07/25/2022 12:00:00 AM	07/25/2022 12:00:00 AM	07/25/2022 12:00:00 AM
SR21075390	CLOS	"""Restaurant consult, new lic"""	"""RCNEWLIC"""	""" """	Cinc Health Dept	2021-08-24	2021-08-24	2022-02-20	"""3251 BROOKLINE DR - GJ1473035219 """	45220	39.1396920825968	-84.5154759597084	08/24/2021 12:00:00 AM	08/24/2021 12:00:00 AM	08/24/2021 12:00:00 AM
SR22103018	NEW	"""Litter, private property"""	"""LITR-PRV"""	"""Request entered through the Web. Refer to Intake Questions for further description."""	Public Services	2022-11-22	2022-11-22	2023-01-06	"""29 E MCMICKEN AV, CINC - """	45202	39.1160745136764	-84.5163679603226	11/22/2022 12:00:00 AM	11/22/2022 12:00:00 AM	11/22/2022 12:00:00 AM
SR22041765	NEW	"""Litter, private property"""	"""LITR-PRV"""	"""Request entered through the Web. Refer to Intake Questions for further description."""	Public Services	2022-05-11	2022-05-11	2022-06-25	"""1610 ELM ST, CINC - """	45202	39.113540558163	-84.5191543108577	05/11/2022 12:00:00 AM	05/11/2022 12:00:00 AM	05/11/2022 12:00:00 AM
SR22031723	CLOS	"""Metal Furniture, Spec Collectn"""	"""MTL-FRN"""	"""Request entered through the Web. Refer to Intake Questions for further description."""	Public Services	2022-04-11	2022-04-29	2022-04-25	"""3286 HILDRETH AV, CINC - GJ0640035706"""	45211	39.1461018276214	-84.6116208150278	04/11/2022 12:00:00 AM	04/29/2022 12:00:00 AM	05/07/2022 12:00:00 AM
SR22035544	CLOS	"""Unsanitary living conditions"""	"""BD_UNSAN"""	"""Request entered through the Web. Refer to Intake Questions for further description."""	Cinc Health Dept	2022-04-24	2022-05-04	2022-10-21	"""FLORA ST & W MCMILLAN ST"""	45219	39.1281379222904	-84.5243194622877	04/24/2022 12:00:00 AM	05/04/2022 12:00:00 AM	05/07/2022 12:00:00 AM
SR22086046	NEW	"""Metal Furniture, Spec Collectn"""	"""MTL-FRN"""	"""Request entered through the Web. Refer to Intake Questions for further description."""	Public Services	2022-09-18	2022-09-18	2022-10-02	"""723 PEDRETTI AV, CINC - GJ0763631534"""	45238	39.1082427983735	-84.598608252127	09/18/2022 12:00:00 AM	09/18/2022 12:00:00 AM	09/18/2022 12:00:00 AM
SR22017801	CLOS	"""Pothole, repair"""	"""PTHOLE"""	"""Request entered through the Web. Refer to Intake Questions for further description."""	Public Services	2022-02-24	2022-02-26	2022-03-08	"""3660 MONTGOMERY RD, CINC - GJ1888236027"""	45207	39.1459426297785	-84.4671923990242	02/24/2022 12:00:00 AM	02/26/2022 12:00:00 AM	03/20/2022 12:00:00 AM
SR22062728	NEW	"""Pothole, repair"""	"""PTHOLE"""	"""Request entered through the Web. Refer to Intake Questions for further description."""	Public Services	2022-07-09	2022-07-09	2022-07-21	"""1241 EDWARDS RD, CINC - GJ2091234813"""	45208	39.1345307315009	-84.4438077962145	07/09/2022 12:00:00 AM	07/09/2022 12:00:00 AM	07/09/2022 12:00:00 AM
SR22065226	NEW	"""Vehicle, abandon priv p access"""	"""ABAN-VPR"""	"""CAMPER VAN, WHITE WITH RED DETAIL, PARKED IN DRIVEWAY FOR THE LAST YEAR."""	Cinc Health Dept	2022-07-15	2022-07-15	2022-09-03	"""668 ENRIGHT AV - GJ0982630990 """	45205	39.1028208788535	-84.5734662806215	07/15/2022 12:00:00 AM	07/15/2022 12:00:00 AM	07/15/2022 12:00:00 AM
SR21108254	NEW	"""Trash, request for collection"""	"""RF-COLLT"""	"""RTC-MISSED COLLECTION-12/27/2021"""	Public Services	2021-12-28	2021-12-28	2022-01-04	"""2105 SELIM AV - GJ1162633002 """	45214	39.120493269609	-84.5520506684541	12/28/2021 12:00:00 AM	12/28/2021 12:00:00 AM	12/28/2021 12:00:00 AM
SR22033025	CLOS	"""Metal Furniture, Spec Collectn"""	"""MTL-FRN"""	"""SPECIAL COLLECTIONS """	Public Services	2022-04-15	2022-05-02	2022-04-29	"""2614 FIRTREE CT - GJ1190638968 """	45223	39.1741429441553	-84.5469487335497	04/15/2022 12:00:00 AM	05/02/2022 12:00:00 AM	05/07/2022 12:00:00 AM
SR22086096	NEW	"""Metal Furniture, Spec Collectn"""	"""MTL-FRN"""	"""queen size mattress"""	Public Services	2022-09-18	2022-09-18	2022-10-02	"""1214 HERSCHEL AV - GJ2278534382 """	45208	39.1301382907706	-84.4226324478399	09/18/2022 12:00:00 AM	09/18/2022 12:00:00 AM	09/18/2022 12:00:00 AM
SR22069285	NEW	"""Metal Furniture, Spec Collectn"""	"""MTL-FRN"""	"""Request entered through the Web. Refer to Intake Questions for further description."""	Public Services	2022-07-27	2022-07-27	2022-08-10	"""924 FAIRBANKS AV, CINC - GJ1025731598"""	45205	39.1081944735944	-84.5683018584593	07/27/2022 12:00:00 AM	07/27/2022 12:00:00 AM	07/27/2022 12:00:00 AM
SR22100312	CLOS	"""Trash, request for collection"""	"""RF-COLLT"""	"""CALLER HAS SET OUT SERVICE BUT TRASH WAS NOT COLLECTED"""	Public Services	2022-11-10	2022-11-10	2022-11-17	"""2610 FIRTREE CT - GJ1189038974 """	45223	39.1741974137233	-84.5471302654561	11/10/2022 12:00:00 AM	11/10/2022 12:00:00 AM	11/10/2022 12:00:00 AM
SR22089266	NEW	"""Default, police (and junk veh)"""	"""DFLTPLC"""	"""BLACK INFINITY G6 HAS BEEN PARKED FOR 3 MONTHS WITHOUT MOVING """	Police Department	2022-09-29	2022-09-29	2022-09-30	"""3612 ALLVIEW CIR - GJ0570634685 """	45238	39.1370677979333	-84.6199577733937	09/29/2022 12:00:00 AM	09/29/2022 12:00:00 AM	09/29/2022 12:00:00 AM
SR22066506	NEW	"""Trash, request for collection"""	"""RF-COLLT"""	"""Request entered through the Web. Refer to Intake Questions for further description."""	Public Services	2022-07-19	2022-07-19	2022-07-26	"""3865 SPRING HOUSE LN, CINC - GJ1621037013"""	45217	39.1554792720688	-84.49778738739	07/19/2022 12:00:00 AM	07/19/2022 12:00:00 AM	07/19/2022 12:00:00 AM
SR22048219	NEW	"""Corner can, new"""	"""CRNCAN-N"""	"""Request entered through the Web. Refer to Intake Questions for further description."""	Public Services	2022-05-29	2022-05-29	2022-06-28	"""329 W MCMILLAN ST, CINC - GJ1402933892"""	45219	39.1279294767914	-84.5239890699158	05/29/2022 12:00:00 AM	05/29/2022 12:00:00 AM	05/29/2022 12:00:00 AM
SR22082915	NEW	"""Metal Furniture, Spec Collectn"""	"""MTL-FRN"""	"""3 COUCHES, 1 MATTRESS, 1 BOX SPRING"""	Public Services	2022-09-08	2022-09-08	2022-09-22	"""6512 PARKLAND AV - FJ9974431638 """	45233	39.1110186177638	-84.6897872786568	09/08/2022 12:00:00 AM	09/08/2022 12:00:00 AM	09/14/2022 12:00:00 AM
SR22045434	OPEN	"""Yard waste,rtc"""	"""YDWSTA-J"""	"""RTC"""	Public Services	2022-05-20	2022-05-20	2022-05-27	"""2113 WEST FORK RD - GJ0974137506 """	45211	39.1615046585562	-84.5724388024007	05/20/2022 12:00:00 AM	05/20/2022 12:00:00 AM	05/20/2022 12:00:00 AM
SR22083952	CLOS	"""Barricade, setup/remve"""	"""BARRIC"""	"""Transfer: 09/12/2022 11:06 AM/ERADIGAN. - Request entered through the Web. Refer to Intake Questions for further description."""	Public Services	2022-09-12	2022-09-12	2022-09-14	"""1247 HOLLYWOOD AV, CINC - GJ1265942733"""	45224	39.2078583865901	-84.5370411576723	09/12/2022 12:00:00 AM	09/12/2022 12:00:00 AM	09/14/2022 12:00:00 AM
SR22048976	NEW	"""Tires, Special Collection"""	"""TIRES"""	""" """	Public Services	2022-06-01	2022-06-01	2022-06-15	"""3770 W LIBERTY ST - GJ0961732561 """	45205	39.1170097226414	-84.5754040818903	06/01/2022 12:00:00 AM	06/01/2022 12:00:00 AM	06/01/2022 12:00:00 AM
SR22003465	NEW	"""Yard waste,rtc"""	"""YDWSTA-J"""	"""Transfer: 01/14/2022 7:06 AM/LMJOHNSONtrasnferred to yard waste  - Request entered through the Web. Refer to Intake Questions for further description."""	Public Services	2022-01-14	2022-01-14	2022-01-21	"""5015 DOVETAIL LN, CINC - GJ1247439656"""	45223	39.1802029597498	-84.5401562088361	01/14/2022 12:00:00 AM	01/14/2022 12:00:00 AM	01/14/2022 12:00:00 AM
SR22102228	NEW	"""Default, police (and junk veh)"""	"""DFLTPLC"""	""" """	Police Department	2022-11-18	2022-11-18	2022-11-19	"""1015 UNDERWOOD PL - GJ1106231868 """	45204	39.11042413843	-84.5589164819288	11/18/2022 12:00:00 AM	11/18/2022 12:00:00 AM	11/18/2022 12:00:00 AM
SR22104557	NEW	"""Yard waste,rtc"""	"""YDWSTA-J"""	"""WHOLE STREET MISSED"""	Public Services	2022-11-30	2022-11-30	2022-12-07	"""6213 GIRARD AV - GJ2137140454 """	45213	39.1851571183942	-84.4369933136955	11/30/2022 12:00:00 AM	11/30/2022 12:00:00 AM	11/30/2022 12:00:00 AM
SR22098320	PEND	"""Recycling, new 35 gallon cart"""	"""NEW35CRT"""	"""35-GALLON CART"""	City Manager's Office	2022-11-03	2022-11-03	2022-11-13	"""25 WOODSDALE AV, CINC - GJ1819443612"""	45216	39.2143992562352	-84.4727071846474	11/03/2022 12:00:00 AM	11/03/2022 12:00:00 AM	11/03/2022 12:00:00 AM
SR22049693	NEW	"""Building, residential"""	"""BLD-RES"""	"""Building A says Building C is using a solvent while they do construction/alterations without permit.  The chemicals being used effecting other customers"""	Cinc Building Dept	2022-06-02	2022-06-02	2023-06-02	"""5098 A GLENCROSSING WY - GJ0630133949 """	45238	39.1302984801637	-84.6133077940153	06/02/2022 12:00:00 AM	06/02/2022 12:00:00 AM	06/02/2022 12:00:00 AM
SR22051549	NEW	"""Tires, Special Collection"""	"""TIRES"""	""" """	Public Services	2022-06-08	2022-06-08	2022-06-22	"""1007 GILSEY AV - GJ0905731789 """	45205	39.1101992525006	-84.5821089119147	06/08/2022 12:00:00 AM	06/08/2022 12:00:00 AM	06/08/2022 12:00:00 AM
SR22026210	CLOS	"""Pothole, repair"""	"""PTHOLE"""	"""PER 515- 1 POTHOLE/1 BAG """	Public Services	2022-03-23	2022-03-23	2022-04-04	"""MORGAN ST & IOWA AV - GJ1609433628 """	45206	39.1250328852774	-84.500212043965	03/23/2022 12:00:00 AM	03/23/2022 12:00:00 AM	03/23/2022 12:00:00 AM
SR22020717	CLOS	"""Metal Furniture, Spec Collectn"""	"""MTL-FRN"""	"""Request entered through the Web. Refer to Intake Questions for further description."""	Public Services	2022-03-05	2022-03-17	2022-03-19	"""587 TORRENCE LN, CINC - GJ1932834407"""	45208	39.1312486437867	-84.4625676153637	03/05/2022 12:00:00 AM	03/17/2022 12:00:00 AM	03/20/2022 12:00:00 AM
SR22098800	NEW	"""Metal Furniture, Spec Collectn"""	"""MTL-FRN"""	""" """	Public Services	2022-11-04	2022-11-04	2022-11-18	"""3531 LUMFORD PL - GJ2326040227 """	45213	39.1826350640153	-84.4152190098998	11/04/2022 12:00:00 AM	11/04/2022 12:00:00 AM	11/04/2022 12:00:00 AM
SR22076989	NEW	"""Building, vacant and open res"""	"""BLD_VACR"""	"""Request entered through the Web. Refer to Intake Questions for further description."""	Cinc Building Dept	2022-08-20	2022-08-20	2022-10-31	"""3521 HERSCHEL VIEW PL, CINC - GJ2290635363"""	45208	39.1389414510881	-84.4208948254612	08/20/2022 12:00:00 AM	08/20/2022 12:00:00 AM	09/14/2022 12:00:00 AM
SR22076303	NEW	"""Building, vacant and open Com"""	"""BLD_VACC"""	"""Request entered through the Web. Refer to Intake Questions for further description."""	Cinc Building Dept	2022-08-18	2022-08-18	2022-10-29	"""2745 ERIE AV, CINC - """	45208	39.1392921810193	-84.4413862493507	08/18/2022 12:00:00 AM	08/18/2022 12:00:00 AM	09/14/2022 12:00:00 AM
SR22049535	OPEN	"""Litter, private property"""	"""LITR-PRV"""	"""Request entered through the Web. Refer to Intake Questions for further description."""	Public Services	2022-06-02	2022-06-02	2022-07-17	"""3715 LACLEDE AV, CINC - GJ0981132096"""	45205	39.1127850901868	-84.573294688689	06/02/2022 12:00:00 AM	06/02/2022 12:00:00 AM	06/02/2022 12:00:00 AM
SR22063712	NEW	"""Tree, trim required public"""	"""TRTRIMUF"""	"""Transfer: 07/12/2022 2:21 PM/SSITTASONbushes/trees victory Py - Parks locs  - Request entered through the Web. Refer to Intake Questions for further description."""	Park Department	2022-07-12	2022-07-12	2023-07-12	"""2705 PRESTON ST, CINC - GJ1751334106"""	45206	39.1288700661822	-84.4835585072047	07/12/2022 12:00:00 AM	07/12/2022 12:00:00 AM	07/12/2022 12:00:00 AM
SR22100390	CLOS	"""Trash, tagged collections"""	"""TGGDCLLC"""	""" """	Public Services	2022-11-10	2022-11-10	2022-11-17	"""2677 MORNINGRIDGE DR - GJ0855034288 """	45211	39.1328176341427	-84.5871971245583	11/10/2022 12:00:00 AM	11/10/2022 12:00:00 AM	11/10/2022 12:00:00 AM
SR21076985	NEW	"""Animal, waste in the yard"""	"""DOG_WSTE"""	"""CALL COMP , COME TO 1624 TO VIEW- RAISING DUCKS, STAGE WATER CAUSING MOSQ, MUDDY DUCK WASTE IN THE YARD"""	Cinc Health Dept	2021-08-30	2021-08-30	2022-02-26	"""1622 S ARGYLE AV - GJ1226938327 """	45223	39.1682785866417	-84.5429500046389	08/30/2021 12:00:00 AM	08/30/2021 12:00:00 AM	08/30/2021 12:00:00 AM
SR21107444	NEW	"""Building, residential"""	"""BLD-RES"""	"""Main door not secured. """	Cinc Building Dept	2021-12-23	2021-12-23	2022-12-23	"""3756 READING RD - GJ1734536641 """	45229	39.1518550191687	-84.4847820033016	12/23/2021 12:00:00 AM	12/23/2021 12:00:00 AM	12/23/2021 12:00:00 AM
SR22094374	NEW	"""Vehicle, abandon priv p access"""	"""ABAN-VPR"""	"""Request entered through the Web. Refer to Intake Questions for further description."""	Cinc Health Dept	2022-10-18	2022-10-18	2022-12-07	"""1708 RACE ST, CINC - """	45202	39.1145662854755	-84.5178159324646	10/18/2022 12:00:00 AM	10/18/2022 12:00:00 AM	10/18/2022 12:00:00 AM
SR22079401	CLOS	"""Litter, private property"""	"""LITR-PRV"""	"""Request entered through the Web. Refer to Intake Questions for further description."""	Public Services	2022-08-28	2022-09-12	2022-10-12	"""2346 FLORA ST, CINC - GJ1400833751"""	45219	39.1266666815434	-84.524273584076	08/28/2022 12:00:00 AM	09/12/2022 12:00:00 AM	09/14/2022 12:00:00 AM
SR21085233	CLOS	"""Mice, building has mice"""	"""MICE-BLD"""	"""Mice in home, mostly in kitchen"""	Cinc Health Dept	2021-09-27	2021-10-20	2022-03-26	"""1718 DENHAM ST - GJ1165334694 """	45225	39.1357259192157	-84.5512010401147	09/27/2021 12:00:00 AM	10/20/2021 12:00:00 AM	11/06/2021 12:00:00 AM
SR22090282	NEW	"""Pothole, repair"""	"""PTHOLE"""	"""SMALL POTHOLE IN THE MIDDLE OF THE ROAD"""	Public Services	2022-10-03	2022-10-03	2022-10-15	"""1906 BERKLEY AV - GJ1925938957 """	45237	39.1722154645833	-84.4619017263604	10/03/2022 12:00:00 AM	10/03/2022 12:00:00 AM	10/03/2022 12:00:00 AM
SR22017102	CLOS	"""Metal Furniture, Spec Collectn"""	"""MTL-FRN"""	"""Request entered through the Web. Refer to Intake Questions for further description."""	Public Services	2022-02-23	2022-02-28	2022-03-09	"""958 WELLS ST, CINC - GJ1018531735"""	45205	39.1094493022596	-84.5690860804531	02/23/2022 12:00:00 AM	02/28/2022 12:00:00 AM	03/20/2022 12:00:00 AM
SR21074140	CLOS	"""Mice, building has mice"""	"""MICE-BLD"""	"""MICE"""	Cinc Health Dept	2021-08-19	2021-10-13	2022-02-15	"""3356 BOWLING GREEN CT - GJ1130935707 """	45225	39.1449328011746	-84.554862522044	08/19/2021 12:00:00 AM	10/13/2021 12:00:00 AM	11/06/2021 12:00:00 AM
SR22057376	NEW	"""Trash cart, registration"""	"""TRSHCRTR"""	"""2 SETS OF REGISTRATION STICKERS"""	Public Services	2022-06-24	2022-06-24	2022-07-16	"""2321 ROHS ST - GJ1423733643 """	45219	39.1256273189697	-84.5216697719836	06/24/2022 12:00:00 AM	06/24/2022 12:00:00 AM	06/24/2022 12:00:00 AM
SR22079296	NEW	"""Default, police (and junk veh)"""	"""DFLTPLC"""	"""Request entered through the Web. Refer to Intake Questions for further description."""	Police Department	2022-08-27	2022-08-27	2022-08-28	"""1712 MEARS AV, CINC - GJ2605429485"""	45230	39.0852187048098	-84.3864670209342	08/27/2022 12:00:00 AM	08/27/2022 12:00:00 AM	09/14/2022 12:00:00 AM
SR22057297	NEW	"""Tall grass/weeds, private prop"""	"""TLGR-PRV"""	"""Request entered through the Web. Refer to Intake Questions for further description."""	Public Services	2022-06-24	2022-06-24	2022-08-08	"""6320 BEECHMONT AV, CINC - GJ2638329877"""	45230	39.0886630318947	-84.3825526794363	06/24/2022 12:00:00 AM	06/24/2022 12:00:00 AM	06/24/2022 12:00:00 AM
SR22111107	NEW	"""Slippery streets, request"""	"""SLPYST"""	"""street is icy and cars are sliding"""	Public Services	2022-12-27	2022-12-27	2022-12-28	"""1972 SUNSET LN - GJ0924033555 """	45238	39.1260496965393	-84.5794506997785	12/27/2022 12:00:00 AM	12/27/2022 12:00:00 AM	12/31/2022 12:00:00 AM
SR22003807	NEW	"""Building, illegal use res prop"""	"""BLD_USER"""	"""Request entered through the Web. Refer to Intake Questions for further description."""	Cinc Building Dept	2022-01-16	2022-01-16	2022-03-29	"""7510 CORNELIA AV, CINC - GJ1767641956"""	45216	39.1996227904132	-84.4792419239827	01/16/2022 12:00:00 AM	01/16/2022 12:00:00 AM	01/16/2022 12:00:00 AM
SR22076482	CLOS	"""Trash, tagged collections"""	"""TGGDCLLC"""	"""PER 739@ 12:24PM - TOILET NOT PREPARED PROPERLY TAGGED AND LEFT """	Public Services	2022-08-18	2022-08-18	2022-08-25	"""5609 LITTLE FLOWER AV - GJ0979641433 """	45239	39.1968450563606	-84.5705836572281	08/18/2022 12:00:00 AM	08/18/2022 12:00:00 AM	09/14/2022 12:00:00 AM
SR22061411	NEW	"""Signal, traf/ped/school repair"""	"""TSIG-MAL"""	"""Request entered through the Web. Refer to Intake Questions for further description."""	Dept of Trans and Eng	2022-07-06	2022-07-06	2022-07-07	"""3446 DELTA AV, CINC - GJ2243335194"""	45208	39.1375424644533	-84.4264247813583	07/06/2022 12:00:00 AM	07/06/2022 12:00:00 AM	07/06/2022 12:00:00 AM
SR22014545	CLOS	"""Building, vacant and open res"""	"""BLD_VACR"""	"""Request entered through the Web. Refer to Intake Questions for further description."""	Cinc Building Dept	2022-02-17	2022-03-01	2022-04-30	"""665 STEINER AV, CINC - GJ1026229616"""	45204	39.0903440760105	-84.5688554979978	02/17/2022 12:00:00 AM	03/01/2022 12:00:00 AM	03/20/2022 12:00:00 AM
SR22095720	NEW	"""Trash cart, repair"""	"""TRREPR"""	"""LID BROKEN"""	Public Services	2022-10-24	2022-10-24	2022-11-10	"""1416 HERSCHEL AV - GJ2294735056 """	45208	39.1361625425936	-84.4205438545258	10/24/2022 12:00:00 AM	10/24/2022 12:00:00 AM	10/24/2022 12:00:00 AM
SR22016496	CLOS	"""Pothole, repair"""	"""PTHOLE"""	"""Transfer: 02/24/2022 8:13 AM/SGOODWINREFER TO POTHOLE REPAIR  - Request entered through the Web. Refer to Intake Questions for further description."""	Public Services	2022-02-22	2022-03-02	2022-03-08	"""900 RUE DE LA PAIX, CINC - GJ1318736549"""	45220	39.1520487344704	-84.5328878174304	02/22/2022 12:00:00 AM	03/02/2022 12:00:00 AM	03/20/2022 12:00:00 AM
SR22107732	CLOS	"""Pothole, repair"""	"""PTHOLE"""	"""POTHOLE REPAIR """	Public Services	2022-12-13	2022-12-13	2022-12-25	"""WESTERN HILLS VIA & STATE AV - GJ1311533463 """	45214	39.1242872628445	-84.5346873543474	12/13/2022 12:00:00 AM	12/13/2022 12:00:00 AM	12/31/2022 12:00:00 AM
SR22088253	NEW	"""Building, residential"""	"""BLD-RES"""	"""Unsafe back porch. weeds overgrowing property. """	Cinc Building Dept	2022-09-26	2022-09-26	2023-09-26	"""1030 DEL MONTE PL - GJ1054131944 """	45205	39.111237434504	-84.5649154937084	09/26/2022 12:00:00 AM	09/26/2022 12:00:00 AM	09/26/2022 12:00:00 AM
SR22017203	CLOS	"""Pothole, repair"""	"""PTHOLE"""	"""Request entered through the Web. Refer to Intake Questions for further description."""	Public Services	2022-02-23	2022-03-07	2022-03-07	"""5135 KIRBY AV, CINC - GJ1093840166"""	45223	39.1851528390719	-84.5575173931738	02/23/2022 12:00:00 AM	03/07/2022 12:00:00 AM	03/20/2022 12:00:00 AM
SR22090407	NEW	"""Trash, empty cans left out """	"""TRASH-L"""	"""EMPTY TOTERS LEFT OUT"""	Cinc Building Dept	2022-10-03	2022-10-03	2022-10-04	"""3210 WERK RD - GJ0666935142 """	45211	39.1409535370245	-84.6086871256152	10/03/2022 12:00:00 AM	10/03/2022 12:00:00 AM	10/03/2022 12:00:00 AM
SR22036072	OPEN	"""Sidewalk, repair haz"""	"""SIDWLKH"""	"""Request entered through the Web. Refer to Intake Questions for further description."""	Dept of Trans and Eng	2022-04-25	2022-04-25	2022-10-22	"""1311 PARKRIDGE PL, CINC - GJ2259834875"""	45208	39.1346257920198	-84.4246134838978	04/25/2022 12:00:00 AM	04/25/2022 12:00:00 AM	05/07/2022 12:00:00 AM
SR22072502	NEW	"""Graffiti, removal"""	"""GRFITI"""	"""Request entered through the Web. Refer to Intake Questions for further description."""	Public Services	2022-08-06	2022-08-06	2022-09-05	"""2244 BEECHMONT AV, CINC - """	45230	39.0957966911746	-84.3870114551695	08/06/2022 12:00:00 AM	08/06/2022 12:00:00 AM	08/06/2022 12:00:00 AM
SR22090915	CLOS	"""Trash, early set out"""	"""TRASH-E"""	"""Request entered through the Web. Refer to Intake Questions for further description."""	Public Services	2022-10-05	2022-10-05	2022-10-06	"""2517 FLANIGAN CT, CINC - GJ0938542203"""	45239	39.2038830453725	-84.5750940102642	10/05/2022 12:00:00 AM	10/05/2022 12:00:00 AM	10/05/2022 12:00:00 AM
SR22048611	NEW	"""Mice, building has mice"""	"""MICE-BLD"""	"""MICE"""	Cinc Health Dept	2022-05-31	2022-05-31	2022-11-27	"""274 STARK ST - GJ1404432986 """	45214	39.1197680227835	-84.5241067482922	05/31/2022 12:00:00 AM	05/31/2022 12:00:00 AM	05/31/2022 12:00:00 AM
SR22029734	NEW	"""Building, residential"""	"""BLD-RES"""	"""Request entered through the Web. Refer to Intake Questions for further description."""	Cinc Building Dept	2022-04-05	2022-04-05	2023-04-05	"""3620 TRIMBLE AV, CINC - GJ1899835949"""	45207	39.1452096977871	-84.4658775495128	04/05/2022 12:00:00 AM	04/05/2022 12:00:00 AM	04/05/2022 12:00:00 AM
SR22107756	CLOS	"""Trash, tagged collections"""	"""TGGDCLLC"""	"""per 815 @ 750am carpet not prepared properly- not cut or rolled and taped/tied properly."""	Public Services	2022-12-13	2022-12-13	2022-12-20	"""1312 JOSEPH ST - GJ1809339024 """	45237	39.1731155501255	-84.4753728878345	12/13/2022 12:00:00 AM	12/13/2022 12:00:00 AM	12/31/2022 12:00:00 AM
SR22103795	OPEN	"""Litter, private property"""	"""LITR-PRV"""	"""Request entered through the Web. Refer to Intake Questions for further description."""	Public Services	2022-11-28	2022-11-28	2023-01-12	"""2225 SYMMES ST, CINC - GJ1624033318"""	45206	39.1222124152124	-84.4986193032403	11/28/2022 12:00:00 AM	11/28/2022 12:00:00 AM	11/28/2022 12:00:00 AM
SR22025447	NEW	"""Metal Furniture, Spec Collectn"""	"""MTL-FRN"""	""" """	Public Services	2022-03-21	2022-03-21	2022-04-04	"""4240 FEHR RD - GJ0833430598 """	45238	39.0996470414758	-84.5908337593776	03/21/2022 12:00:00 AM	03/21/2022 12:00:00 AM	03/21/2022 12:00:00 AM
SR22111051	NEW	"""Building, plmb haz during cons"""	"""PLMB HAZ"""	"""No water in unit 2 for 6 days"""	Cinc Building Dept	2022-12-27	2022-12-27	2023-06-25	"""669 JUNE ST - GJ1652733987 """	45206	39.1281612924322	-84.4950931479649	12/27/2022 12:00:00 AM	12/27/2022 12:00:00 AM	12/31/2022 12:00:00 AM
SR22084692	CLOS	"""Tall grass/weeds, private prop"""	"""TLGR-PRV"""	"""tall grass and weeds all over the property blocking the fire hydrant and driveway"""	Public Services	2022-09-13	2022-09-14	2022-10-28	"""6387 CENTER HILL AV - GJ1436541864 """	45224	39.1996078251423	-84.517583248631	09/13/2022 12:00:00 AM	09/14/2022 12:00:00 AM	09/14/2022 12:00:00 AM
SR22078428	CLOS	"""Trash, tagged collections"""	"""TGGDCLLC"""	"""PER 647 @ 1228AM MESS UPON ARRIVAL """	Public Services	2022-08-24	2022-08-24	2022-08-31	"""2305 KENTON ST - GJ1657033373 """	45206	39.1226272004444	-84.4947880694676	08/24/2022 12:00:00 AM	08/24/2022 12:00:00 AM	09/14/2022 12:00:00 AM
SR22104752	CLOS	"""Tires, Special Collection"""	"""TIRES"""	"""Various location tires - total 74 pick up by Rumpke"""	Public Services	2022-11-30	2022-11-30	2022-12-14	"""3320 MILLCREEK RD - GJ1190036033 """	45223	39.1477222585318	-84.5479252995295	11/30/2022 12:00:00 AM	11/30/2022 12:00:00 AM	11/30/2022 12:00:00 AM
SR21102741	NEW	"""Tall grass/weeds, private prop"""	"""TLGR-PRV"""	"""tall grass"""	Public Services	2021-12-03	2021-12-03	2022-01-17	"""736 CLANORA DR - GJ0839331258 """	45205	39.1055760004683	-84.5899489858582	12/03/2021 12:00:00 AM	12/03/2021 12:00:00 AM	12/03/2021 12:00:00 AM
SR22016092	CLOS	"""Metal Furniture, Spec Collectn"""	"""MTL-FRN"""	"""SPECIAL COLLECTION """	Public Services	2022-02-22	2022-03-04	2022-03-08	"""1038 URBANCREST PL - GJ2280333864 """	45226	39.1254757024618	-84.422596643968	02/22/2022 12:00:00 AM	03/04/2022 12:00:00 AM	03/20/2022 12:00:00 AM
SR22055303	NEW	"""Plumbing, defective"""	"""PLMB_DEF"""	"""Request entered through the Web. Refer to Intake Questions for further description."""	Cinc Health Dept	2022-06-17	2022-06-17	2022-12-14	"""2109 HARRISON AV, CINC - GJ1014034396"""	45214	39.1334085766363	-84.5687861167503	06/17/2022 12:00:00 AM	06/17/2022 12:00:00 AM	06/17/2022 12:00:00 AM
SR22005350	NEW	"""Sign, grnd mnted new/chang/rem"""	"""NW/MSSNG"""	"""Request entered through the Web. Refer to Intake Questions for further description."""	Dept of Trans and Eng	2022-01-21	2022-01-21	2022-04-21	"""5637 COLERAIN AV, CINC - GJ0936441255"""	45239	39.1953513897152	-84.5756361220215	01/21/2022 12:00:00 AM	01/21/2022 12:00:00 AM	01/21/2022 12:00:00 AM
SR21106276	NEW	"""Trash cart, registration"""	"""TRSHCRTR"""	"""REQUESTING A SET OF STICKERS (1)"""	Public Services	2021-12-17	2021-12-17	2022-01-08	"""1235 CONSIDINE AV - GJ1071732331 """	45204	39.1146730888656	-84.5627601260976	12/17/2021 12:00:00 AM	12/17/2021 12:00:00 AM	12/17/2021 12:00:00 AM
SR22093857	NEW	"""Trash cart, repair"""	"""TRREPR"""	"""HINGE PIN NEED TO REPLACED"""	Public Services	2022-10-17	2022-10-17	2022-11-03	"""3661 WASHINGTON AV - GJ1647436535 """	45229	39.1511130537364	-84.4948909735022	10/17/2022 12:00:00 AM	10/17/2022 12:00:00 AM	10/17/2022 12:00:00 AM
SR22080051	CLOS	"""Signal, traf/ped/school repair"""	"""TSIG-MAL"""	"""LIGHT FLASHING """	Dept of Trans and Eng	2022-08-30	2022-08-30	2022-08-31	"""READING RD & LOSANTIVILLE AV - GJ1925741231 """	45237	39.1926872559284	-84.4611958383029	08/30/2022 12:00:00 AM	08/30/2022 12:00:00 AM	09/14/2022 12:00:00 AM
SR22096808	NEW	"""Building, illegal use res prop"""	"""BLD_USER"""	"""Request entered through the Web. Refer to Intake Questions for further description."""	Cinc Building Dept	2022-10-27	2022-10-27	2023-01-07	"""36 W MITCHELL AV, CINC - GJ1550437610"""	45217	39.1610376603617	-84.5057520402196	10/27/2022 12:00:00 AM	10/27/2022 12:00:00 AM	10/27/2022 12:00:00 AM
SR22077707	NEW	"""Metal Furniture, Spec Collectn"""	"""MTL-FRN"""	"""Request entered through the Web. Refer to Intake Questions for further description."""	Public Services	2022-08-23	2022-08-23	2022-09-06	"""4846 RAPID RUN RD, CINC - GJ0740931879"""	45238	39.111404938779	-84.6011279641411	08/23/2022 12:00:00 AM	08/23/2022 12:00:00 AM	09/14/2022 12:00:00 AM
SR22090250	OPEN	"""Recycling, request to collect"""	"""RCYCLNG"""	"""Request entered through the Web. Refer to Intake Questions for further description."""	City Manager's Office	2022-10-03	2022-10-03	2022-10-04	"""936 FINDLAY ST, CINC - GJ1347932602"""	45214	39.1164494693724	-84.5307553800673	10/03/2022 12:00:00 AM	10/03/2022 12:00:00 AM	10/03/2022 12:00:00 AM
SR22039576	NEW	"""Metal Furniture, Spec Collectn"""	"""MTL-FRN"""	"""Request entered through the Web. Refer to Intake Questions for further description."""	Public Services	2022-05-04	2022-05-04	2022-05-18	"""2365 VICTOR ST, CINC - GJ1404333825"""	45219	39.1273222478209	-84.5238481835951	05/04/2022 12:00:00 AM	05/04/2022 12:00:00 AM	05/07/2022 12:00:00 AM
SR22000053	NEW	"""Metal Furniture, Spec Collectn"""	"""MTL-FRN"""	"""Request entered through the Web. Refer to Intake Questions for further description."""	Public Services	2022-01-02	2022-01-02	2022-01-16	"""653 RIDDLE RD, CINC - GJ1359834757"""	45220	39.1358226098908	-84.5286948026287	01/02/2022 12:00:00 AM	01/02/2022 12:00:00 AM	01/02/2022 12:00:00 AM
SR22039125	CLOS	"""Yard waste, tagged collections"""	"""YRDWSTTC"""	"""PER 776@ 12:15PM- YW IN PLASTIC BAGS TAGGED AND LEFT """	Public Services	2022-05-03	2022-05-03	2022-05-10	"""7256 EASTLAWN DR - GJ1976741367 """	45237	39.1937818598364	-84.4552443238923	05/03/2022 12:00:00 AM	05/03/2022 12:00:00 AM	05/07/2022 12:00:00 AM
SR22050122	NEW	"""Default, City"""	"""DFLTCITY"""	"""Request entered through the Web. Refer to Intake Questions for further description."""	Public Services	2022-06-03	2022-06-03	2022-06-13	"""2436 HOMESTEAD PL, CINC - GJ0977434102"""	45211	39.1308540661403	-84.5731116400758	06/03/2022 12:00:00 AM	06/03/2022 12:00:00 AM	06/03/2022 12:00:00 AM
SR22108250	CLOS	"""Yard waste,rtc"""	"""YDWSTA-J"""	"""Request entered through the Web. Refer to Intake Questions for further description."""	Public Services	2022-12-14	2022-12-16	2022-12-21	"""6230 ROBISON RD, CINC - GJ2296940372"""	45213	39.1840250360146	-84.4185209633867	12/14/2022 12:00:00 AM	12/16/2022 12:00:00 AM	12/31/2022 12:00:00 AM
SR22012638	CLOS	"""Metal Furniture, Spec Collectn"""	"""MTL-FRN"""	""" """	Public Services	2022-02-11	2022-03-04	2022-02-25	"""5644 FOXGLOVE LN - GJ0949241442 """	45239	39.1969992756579	-84.5740965323419	02/11/2022 12:00:00 AM	03/04/2022 12:00:00 AM	03/20/2022 12:00:00 AM
SR22074175	OPEN	"""Litter, private property"""	"""LITR-PRV"""	"""Request entered through the Web. Refer to Intake Questions for further description."""	Public Services	2022-08-11	2022-08-11	2022-09-25	"""3315 MILTON CT, CINC - GJ1688135320"""	45229	39.1400785437942	-84.4905646371762	08/11/2022 12:00:00 AM	08/11/2022 12:00:00 AM	08/11/2022 12:00:00 AM
SR22039397	NEW	"""Trash, improper set out"""	"""TRASH-I"""	"""Request entered through the Web. Refer to Intake Questions for further description."""	Public Services	2022-05-04	2022-05-04	2022-05-05	"""4303 VINE ST, CINC - GJ1565537764"""	45217	39.1623870042265	-84.5039526102532	05/04/2022 12:00:00 AM	05/04/2022 12:00:00 AM	05/07/2022 12:00:00 AM
SR22035920	CLOS	"""Litter, private property"""	"""LITR-PRV"""	""" """	Public Services	2022-04-25	2022-04-26	2022-06-09	"""2154 STAEBLER ST - GJ1161131155 """	45204	39.1038700870816	-84.5527923770941	04/25/2022 12:00:00 AM	04/26/2022 12:00:00 AM	05/07/2022 12:00:00 AM
SR22087477	NEW	"""Sidewalk, repair haz"""	"""SIDWLKH"""	"""Request entered through the Web. Refer to Intake Questions for further description."""	Dept of Trans and Eng	2022-09-22	2022-09-22	2023-03-21	"""2875 LAFEUILLE AV, CINC - GJ0821834884"""	45211	39.1382777881148	-84.5908364179176	09/22/2022 12:00:00 AM	09/22/2022 12:00:00 AM	09/22/2022 12:00:00 AM
SR22067559	PEND	"""Recycling, repair 64"""	"""REPAIR64"""	"""RECYCLING CART REPAIR """	City Manager's Office	2022-07-22	2022-07-22	2022-08-08	"""2905 DAYTONA AV - GJ0747535788 """	45211	39.14658051395	-84.5991742826609	07/22/2022 12:00:00 AM	07/22/2022 12:00:00 AM	07/22/2022 12:00:00 AM
SR22015819	NEW	"""Building, residential"""	"""BLD-RES"""	"""Request entered through the Web. Refer to Intake Questions for further description."""	Cinc Building Dept	2022-02-21	2022-02-21	2023-02-21	"""2711 LAWNDALE AV, CINC - GJ2124639483"""	45212	39.1764552065256	-84.4387399178115	02/21/2022 12:00:00 AM	02/21/2022 12:00:00 AM	03/20/2022 12:00:00 AM
SR22048629	CLOS	"""Trash, tagged collections"""	"""TGGDCLLC"""	"""PER 854 @ 1044AM NON COMPATIBLE TOTER """	Public Services	2022-05-31	2022-05-31	2022-06-07	"""537 RINGGOLD ST - GJ1570232495 """	45202	39.1149325451133	-84.5050999802379	05/31/2022 12:00:00 AM	05/31/2022 12:00:00 AM	05/31/2022 12:00:00 AM
SR22071214	NEW	"""Metal Furniture, Spec Collectn"""	"""MTL-FRN"""	""" """	Public Services	2022-08-02	2022-08-02	2022-08-16	"""4121 HEYWARD ST - GJ0906833117 """	45205	39.1221527773024	-84.5815813791672	08/02/2022 12:00:00 AM	08/02/2022 12:00:00 AM	08/02/2022 12:00:00 AM
SR22059828	OPEN	"""Yard waste,rtc"""	"""YDWSTA-J"""	"""P/U ON ADA STREET """	Public Services	2022-07-01	2022-07-01	2022-07-08	"""2335 FLORA ST - GJ1397133709 """	45219	39.1262879859745	-84.5247281038342	07/01/2022 12:00:00 AM	07/01/2022 12:00:00 AM	07/01/2022 12:00:00 AM
SR22087412	NEW	"""Trash, improper set out"""	"""TRASH-I"""	"""Request entered through the Web. Refer to Intake Questions for further description."""	Public Services	2022-09-22	2022-09-22	2022-09-29	"""2287 BUCK ST, CINC - GJ1295133653"""	45214	39.1257903991527	-84.5362011464077	09/22/2022 12:00:00 AM	09/22/2022 12:00:00 AM	09/22/2022 12:00:00 AM
SR22067808	NEW	"""Tall grass/weeds, private prop"""	"""TLGR-PRV"""	"""Request entered through the Web. Refer to Intake Questions for further description."""	Public Services	2022-07-23	2022-07-23	2022-09-06	"""1118 WELLS ST, CINC - GJ1017332128"""	45205	39.1129808051322	-84.5691053626889	07/23/2022 12:00:00 AM	07/23/2022 12:00:00 AM	07/23/2022 12:00:00 AM
SR22035443	OPEN	"""Sidewalk, repair haz"""	"""SIDWLKH"""	"""Request entered through the Web. Refer to Intake Questions for further description."""	Dept of Trans and Eng	2022-04-23	2022-04-25	2022-10-20	"""505 LIBERTY HILL, CINC - """	45202	39.1121805513185	-84.5070132616499	04/23/2022 12:00:00 AM	04/25/2022 12:00:00 AM	05/07/2022 12:00:00 AM
SR22103251	NEW	"""Metal Furniture, Spec Collectn"""	"""MTL-FRN"""	""" """	Public Services	2022-11-23	2022-11-23	2022-12-07	"""2921 QUEEN CITY AV - GJ0753434447 """	45238	39.1344902639393	-84.5989050147072	11/23/2022 12:00:00 AM	11/23/2022 12:00:00 AM	11/23/2022 12:00:00 AM
SR22078194	CLOS	"""Trash, request for collection"""	"""RF-COLLT"""	"""RTC TOILET"""	Public Services	2022-08-24	2022-08-26	2022-08-31	"""946 WINDSOR ST - GJ1698433381 """	45206	39.1225885636321	-84.4900061210829	08/24/2022 12:00:00 AM	08/26/2022 12:00:00 AM	09/14/2022 12:00:00 AM
SR22022684	NEW	"""Metal Furniture, Spec Collectn"""	"""MTL-FRN"""	"""Request entered through the Web. Refer to Intake Questions for further description."""	Public Services	2022-03-10	2022-03-10	2022-03-24	"""1191 CORONADO AV, CINC - GJ0738032549"""	45238	39.1174419691891	-84.6012554401038	03/10/2022 12:00:00 AM	03/10/2022 12:00:00 AM	03/20/2022 12:00:00 AM
SR22083614	OPEN	"""Litter, private property"""	"""LITR-PRV"""	"""Request entered through the Web. Refer to Intake Questions for further description."""	Public Services	2022-09-09	2022-09-14	2022-10-24	"""2215 SELIM AV, CINC - GJ1164133338"""	45214	39.1235249415621	-84.5517583459175	09/09/2022 12:00:00 AM	09/14/2022 12:00:00 AM	09/14/2022 12:00:00 AM
SR21108725	NEW	"""Metal Furniture, Spec Collectn"""	"""MTL-FRN"""	"""Request entered through the Web. Refer to Intake Questions for further description."""	Public Services	2021-12-30	2021-12-30	2022-01-13	"""3215 LOOKOUT DR, CINC - GJ2246834175"""	45208	39.1283628399416	-84.4263531291133	12/30/2021 12:00:00 AM	12/30/2021 12:00:00 AM	12/30/2021 12:00:00 AM
SR22100898	NEW	"""Metal Furniture, Spec Collectn"""	"""MTL-FRN"""	""" """	Public Services	2022-11-14	2022-11-14	2022-11-28	"""1110 CHAPEL ST - GJ1738034344 """	45206	39.1311585146356	-84.4851181385407	11/14/2022 12:00:00 AM	11/14/2022 12:00:00 AM	11/14/2022 12:00:00 AM
SR22021695	OPEN	"""Default, police (and junk veh)"""	"""DFLTPLC"""	"""NEAR INTERSECTION OF VENETIAN TER AND SUNRIDGE - BLACK CHEVY SUV WITH FLAT DRIVER SIDE TIRE """	Police Department	2022-03-08	2022-03-14	2022-03-09	"""VENETIAN TER & SUNRIDGE DR - GJ1336441725 """	45224	39.1986031029101	-84.5292124755157	03/08/2022 12:00:00 AM	03/14/2022 12:00:00 AM	03/20/2022 12:00:00 AM
SR22085113	NEW	"""Metal Furniture, Spec Collectn"""	"""MTL-FRN"""	"""TREADMILL"""	Public Services	2022-09-14	2022-09-14	2022-09-28	"""3246 GLENDORA AV - GJ1519435233 """	45220	39.1397111715343	-84.5101055277727	09/14/2022 12:00:00 AM	09/14/2022 12:00:00 AM	09/14/2022 12:00:00 AM
SR22039288	CLOS	"""Litter, private property"""	"""LITR-PRV"""	"""Request entered through the Web. Refer to Intake Questions for further description."""	Public Services	2022-05-04	2022-05-04	2022-06-18	"""3614 MARIA AV, CINC - GJ1000531940"""	45205	39.1113302129849	-84.5711049514421	05/04/2022 12:00:00 AM	05/04/2022 12:00:00 AM	05/07/2022 12:00:00 AM
SR22018957	OPEN	"""Sign, down/missing """	"""STRSGN"""	"""Request entered through the Web. Refer to Intake Questions for further description."""	Public Services	2022-02-28	2022-03-01	2022-03-01	"""4411 GLENWAY AV, CINC - GJ0861332114"""	45205	39.1132368033183	-84.587144850018	02/28/2022 12:00:00 AM	03/01/2022 12:00:00 AM	03/20/2022 12:00:00 AM
SR22049660	NEW	"""Metal Furniture, Spec Collectn"""	"""MTL-FRN"""	"""Request entered through the Web. Refer to Intake Questions for further description."""	Public Services	2022-06-02	2022-06-02	2022-06-16	"""2820 GRIFFITHS AV, CINC - GJ2120035712"""	45208	39.1425173958642	-84.4405019506436	06/02/2022 12:00:00 AM	06/02/2022 12:00:00 AM	06/02/2022 12:00:00 AM
SR22081904	CLOS	"""Trash, on arrival"""	"""TRSHONAR"""	"""PER 619@ 8:24AM- MOA - 6 BAGS ON GROUND , TRASH ON GROUND TAGGED AND LEFT """	Public Services	2022-09-06	2022-09-06	2022-09-13	"""1257 ILIFF AV - GJ0919432467 """	45205	39.1162678567556	-84.580324886155	09/06/2022 12:00:00 AM	09/06/2022 12:00:00 AM	09/14/2022 12:00:00 AM
SR22003439	NEW	"""Metal Furniture, Spec Collectn"""	"""MTL-FRN"""	""" """	Public Services	2022-01-13	2022-01-13	2022-01-27	"""2575 MONTANA AV - GJ0901936747 """	45211	39.154839227134	-84.5810254949868	01/13/2022 12:00:00 AM	01/13/2022 12:00:00 AM	01/13/2022 12:00:00 AM
SR22013486	CLOS	"""Pothole, repair"""	"""PTHOLE"""	"""Request entered through the Web. Refer to Intake Questions for further description."""	Public Services	2022-02-15	2022-03-04	2022-02-27	"""3170 WASSON RD, CINC - GJ2242235978"""	45209	39.1446053211051	-84.4262938514841	02/15/2022 12:00:00 AM	03/04/2022 12:00:00 AM	03/20/2022 12:00:00 AM
SR22083174	CLOS	"""Recycling, request to collect"""	"""RCYCLNG"""	"""Request entered through the Web. Refer to Intake Questions for further description."""	City Manager's Office	2022-09-08	2022-09-09	2022-09-09	"""1142 INGLENOOK PL, CINC - GJ2211734655"""	45208	39.1327716437893	-84.4302539529771	09/08/2022 12:00:00 AM	09/09/2022 12:00:00 AM	09/14/2022 12:00:00 AM
SR22105853	OPEN	"""Unsanitary living conditions"""	"""BD_UNSAN"""	"""Request entered through the Web. Refer to Intake Questions for further description."""	Cinc Health Dept	2022-12-05	2022-12-13	2023-06-03	"""1761 HARRISON AV, CINC - GJ1114433762"""	45214	39.1274624393908	-84.5573808458283	12/05/2022 12:00:00 AM	12/13/2022 12:00:00 AM	12/31/2022 12:00:00 AM
SR22045458	OPEN	"""Tall grass/weeds, private prop"""	"""TLGR-PRV"""	"""Request entered through the Web. Refer to Intake Questions for further description."""	Public Services	2022-05-20	2022-05-20	2022-07-04	"""515 CARMALT ST, CINC - GJ1565232681"""	45219	39.1166291921851	-84.5056101797731	05/20/2022 12:00:00 AM	05/20/2022 12:00:00 AM	05/20/2022 12:00:00 AM
SR21103828	NEW	"""Building, residential"""	"""BLD-RES"""	"""Inspect to update conditions & reissue B201807000 & B202102269 due to ownership change."""	Cinc Building Dept	2021-12-08	2021-12-08	2022-12-08	"""2605 RING PL - GJ1102132061 """	45204	39.1121772011189	-84.5593308987065	12/08/2021 12:00:00 AM	12/08/2021 12:00:00 AM	12/08/2021 12:00:00 AM
SR22002045	NEW	"""Building, residential"""	"""BLD-RES"""	"""Request entered through the Web. Refer to Intake Questions for further description."""	Cinc Building Dept	2022-01-10	2022-01-10	2023-01-10	"""1854 CARLL ST, CINC - GJ1110834644"""	45225	39.1354107387347	-84.5575182060498	01/10/2022 12:00:00 AM	01/10/2022 12:00:00 AM	01/10/2022 12:00:00 AM
SR22058411	NEW	"""Trash, set out service"""	"""STTSRVC"""	"""Request entered through the Web. Refer to Intake Questions for further description."""	Public Services	2022-06-27	2022-06-27	2022-07-27	"""478 CRESTLINE AV, CINC - GJ1036930727"""	45205	39.1003252692535	-84.5672703968862	06/27/2022 12:00:00 AM	06/27/2022 12:00:00 AM	06/27/2022 12:00:00 AM
SR22055147	CLOS	"""Barricade, setup/remve"""	"""BARRIC"""	"""POLICE ARE REQUESTING DETOUR SIGNS AND 4  BARRICADES DUE TO A FALLEN TREE - WIRES WERE DOWN , BUT DUKE ENERGY HAS TAKEN CARE OF IT """	Public Services	2022-06-17	2022-06-17	2022-06-19	"""KELLOGG AV & SALEM RD - GJ2316929155 """	45230	39.0829831124273	-84.4199063621603	06/17/2022 12:00:00 AM	06/17/2022 12:00:00 AM	06/17/2022 12:00:00 AM
SR21090083	OPEN	"""Sidewalk, repair haz"""	"""SIDWLKH"""	"""Request entered through the Web. Refer to Intake Questions for further description."""	Dept of Trans and Eng	2021-10-12	2021-10-13	2022-04-10	"""100 W 6TH ST, CINC - GJ1487831067"""	45202	39.1022885792902	-84.5150634307815	10/12/2021 12:00:00 AM	10/13/2021 12:00:00 AM	11/06/2021 12:00:00 AM
SR22085054	NEW	"""Metal Furniture, Spec Collectn"""	"""MTL-FRN"""	"""Request entered through the Web. Refer to Intake Questions for further description."""	Public Services	2022-09-14	2022-09-14	2022-09-28	"""3751 MIDDLEBROOK AV, CINC - GJ2028636177"""	45208	39.1469399876041	-84.4509119449999	09/14/2022 12:00:00 AM	09/14/2022 12:00:00 AM	09/14/2022 12:00:00 AM
SR22044089	OPEN	"""Tall grass/weeds, private prop"""	"""TLGR-PRV"""	"""Request entered through the Web. Refer to Intake Questions for further description."""	Public Services	2022-05-17	2022-05-17	2022-07-01	"""1323 LINCOLN AV, CINC - GJ1776734422"""	45206	39.1317740026228	-84.4806044057185	05/17/2022 12:00:00 AM	05/17/2022 12:00:00 AM	05/17/2022 12:00:00 AM
SR22060704	NEW	"""Default, police (and junk veh)"""	"""DFLTPLC"""	"""Request entered through the Web. Refer to Intake Questions for further description."""	Police Department	2022-07-05	2022-07-05	2022-07-06	"""1250 ROSS AV, CINC - GJ0983032410"""	45205	39.1156930435193	-84.5730137672683	07/05/2022 12:00:00 AM	07/05/2022 12:00:00 AM	07/05/2022 12:00:00 AM
SR22058115	NEW	"""Metal Furniture, Spec Collectn"""	"""MTL-FRN"""	"""SPECIAL COLLECTION """	Public Services	2022-06-27	2022-06-27	2022-07-11	"""3812 BORDEN ST - GJ1185936970 """	45223	39.1561667651414	-84.5481113627135	06/27/2022 12:00:00 AM	06/27/2022 12:00:00 AM	06/27/2022 12:00:00 AM
